% program   : rnx2rtkp ver.demo5 b32
% inp file  : 2019-08-24-16-48-58.obs
% inp file  : ../base-rec/2019-08-23-11-38-35.obs
% inp file  : 2019-08-24-16-48-58.nav
% obs start : 2019/08/24 16:49:01.4 GPST (week2067 578941.4s)
% obs end   : 2019/08/24 17:37:07.8 GPST (week2067 581827.8s)
% ref pos   : 53.032595189   13.307541008    90.1090
%
% (lat/lon/height=WGS84/ellipsoidal,Q=1:fix,2:float,3:sbas,4:dgps,5:single,6:ppp,ns=# of satellites)
%  GPST          latitude(deg) longitude(deg)  height(m)   Q  ns   sdn(m)   sde(m)   sdu(m)  sdne(m)  sdeu(m)  sdun(m) age(s)  ratio
2067 578941.400   53.027758897   13.313202459    82.3413   2   6   0.0666   0.0442   0.0257   0.0156  -0.0047  -0.0133   1.40    0.0
2067 578941.600   53.027758935   13.313202619    82.3385   2   6   0.0475   0.0293   0.0214   0.0117  -0.0040  -0.0112   1.60    0.0
2067 578941.800   53.027758967   13.313202722    82.3358   2   6   0.0323   0.0180   0.0178   0.0084  -0.0033  -0.0093   1.80    0.0
2067 578942.000   53.027758990   13.313202779    82.3334   2   6   0.0210   0.0101   0.0147   0.0058  -0.0028  -0.0078   0.00    0.0
2067 578942.200   53.027759502   13.313202960    82.3596   1   6   0.0130   0.0052   0.0114   0.0037  -0.0022  -0.0060  -1.80   18.2
2067 578942.400   53.027759511   13.313202992    82.3568   1   6   0.0128   0.0051   0.0113   0.0037  -0.0022  -0.0060  -1.60   18.4
2067 578942.600   53.027759510   13.313202992    82.3499   1   6   0.0127   0.0051   0.0112   0.0037  -0.0021  -0.0059  -1.40   18.6
2067 578942.800   53.027759531   13.313203032    82.3528   1   6   0.0126   0.0050   0.0112   0.0036  -0.0021  -0.0058  -1.20   18.8
2067 578943.000   53.027759577   13.313203007    82.3511   1   6   0.0125   0.0050   0.0111   0.0036  -0.0021  -0.0058  -1.00   18.9
2067 578943.200   53.027759579   13.313203062    82.3457   1   6   0.0124   0.0050   0.0111   0.0036  -0.0021  -0.0058  -0.80   19.2
2067 578943.400   53.027759546   13.313203089    82.3449   1   6   0.0123   0.0050   0.0111   0.0036  -0.0021  -0.0057  -0.60   19.4
2067 578943.600   53.027759527   13.313203052    82.3438   1   6   0.0123   0.0049   0.0111   0.0036  -0.0021  -0.0058  -0.40   19.6
2067 578943.800   53.027759547   13.313203041    82.3463   1   6   0.0123   0.0049   0.0112   0.0036  -0.0021  -0.0058  -0.20   19.8
2067 578944.000   53.027759530   13.313203028    82.3472   1   6   0.0125   0.0050   0.0113   0.0036  -0.0021  -0.0059   0.00   20.1
2067 578944.200   53.027759537   13.313203058    82.3440   1   6   0.0130   0.0052   0.0114   0.0037  -0.0022  -0.0060  -1.80   20.3
2067 578944.400   53.027759517   13.313203063    82.3448   1   6   0.0128   0.0051   0.0113   0.0037  -0.0022  -0.0060  -1.60   20.5
2067 578944.600   53.027759523   13.313203023    82.3471   1   6   0.0127   0.0051   0.0113   0.0037  -0.0021  -0.0059  -1.40   20.7
2067 578944.800   53.027759499   13.313203053    82.3497   1   6   0.0126   0.0050   0.0112   0.0036  -0.0021  -0.0058  -1.20   20.9
2067 578945.000   53.027759493   13.313203025    82.3496   1   6   0.0125   0.0050   0.0111   0.0036  -0.0021  -0.0058  -1.00   21.1
2067 578945.200   53.027759533   13.313203013    82.3516   1   6   0.0124   0.0050   0.0111   0.0036  -0.0021  -0.0058  -0.80   21.3
2067 578945.400   53.027759556   13.313203052    82.3524   1   6   0.0123   0.0050   0.0111   0.0036  -0.0021  -0.0058  -0.60   21.6
2067 578945.600   53.027759537   13.313203028    82.3493   1   6   0.0123   0.0049   0.0111   0.0036  -0.0021  -0.0058  -0.40   21.8
2067 578945.800   53.027759561   13.313203009    82.3465   1   6   0.0123   0.0049   0.0112   0.0036  -0.0021  -0.0058  -0.20   22.0
2067 578946.000   53.027759503   13.313203005    82.3443   1   6   0.0125   0.0050   0.0113   0.0036  -0.0021  -0.0059   0.00   22.3
2067 578946.200   53.027759490   13.313203002    82.3446   1   6   0.0130   0.0052   0.0114   0.0037  -0.0022  -0.0061  -1.80   22.5
2067 578946.400   53.027759531   13.313202998    82.3478   1   6   0.0128   0.0051   0.0113   0.0037  -0.0022  -0.0060  -1.60   22.7
2067 578946.600   53.027759520   13.313202999    82.3450   1   6   0.0127   0.0051   0.0113   0.0037  -0.0021  -0.0059  -1.40   22.9
2067 578946.800   53.027759535   13.313203009    82.3452   1   6   0.0126   0.0050   0.0112   0.0036  -0.0021  -0.0059  -1.20   23.1
2067 578947.000   53.027759526   13.313203024    82.3459   1   6   0.0125   0.0050   0.0111   0.0036  -0.0021  -0.0058  -1.00   23.3
2067 578947.200   53.027759519   13.313203040    82.3469   1   6   0.0124   0.0050   0.0111   0.0036  -0.0021  -0.0058  -0.80   23.5
2067 578947.400   53.027759525   13.313202992    82.3505   1   6   0.0124   0.0050   0.0111   0.0036  -0.0021  -0.0058  -0.60   23.8
2067 578947.600   53.027759579   13.313202990    82.3489   1   6   0.0123   0.0049   0.0112   0.0036  -0.0021  -0.0058  -0.40   24.0
2067 578947.800   53.027759585   13.313202946    82.3448   1   6   0.0124   0.0049   0.0113   0.0036  -0.0021  -0.0059  -0.20   24.2
2067 578948.000   53.027759573   13.313202917    82.3442   1   6   0.0127   0.0050   0.0116   0.0037  -0.0022  -0.0061   0.00   24.5
2067 578948.200   53.027759568   13.313202918    82.3373   1   6   0.0140   0.0055   0.0120   0.0040  -0.0024  -0.0066  -2.80   24.7
2067 578948.400   53.027759540   13.313202882    82.3365   1   6   0.0137   0.0054   0.0119   0.0040  -0.0023  -0.0064  -2.60   24.9
2067 578948.600   53.027759489   13.313202945    82.3338   1   6   0.0135   0.0054   0.0118   0.0039  -0.0023  -0.0063  -2.40   25.1
2067 578948.800   53.027759532   13.313202991    82.3333   1   6   0.0133   0.0053   0.0116   0.0038  -0.0023  -0.0062  -2.20   25.3
2067 578949.000   53.027759531   13.313203013    82.3373   1   6   0.0131   0.0052   0.0115   0.0038  -0.0022  -0.0061  -2.00   25.5
2067 578949.200   53.027759555   13.313203029    82.3385   1   6   0.0130   0.0052   0.0114   0.0037  -0.0022  -0.0061  -1.80   25.8
2067 578949.400   53.027759571   13.313202997    82.3369   1   6   0.0128   0.0051   0.0113   0.0037  -0.0022  -0.0060  -1.60   26.0
2067 578949.600   53.027759545   13.313202970    82.3334   1   6   0.0127   0.0051   0.0113   0.0037  -0.0022  -0.0059  -1.40   26.2
2067 578949.800   53.027759632   13.313202954    82.3344   1   6   0.0126   0.0050   0.0112   0.0036  -0.0021  -0.0059  -1.20   26.5
2067 578950.000   53.027759625   13.313202971    82.3347   1   6   0.0125   0.0050   0.0111   0.0036  -0.0021  -0.0058  -1.00   26.7
2067 578950.200   53.027759611   13.313202970    82.3323   1   6   0.0124   0.0050   0.0111   0.0036  -0.0021  -0.0058  -0.80   27.0
2067 578950.400   53.027759630   13.313202955    82.3323   1   6   0.0123   0.0050   0.0111   0.0036  -0.0021  -0.0058  -0.60   27.3
2067 578950.600   53.027759644   13.313202962    82.3321   1   6   0.0123   0.0049   0.0111   0.0036  -0.0021  -0.0058  -0.40   27.5
2067 578950.800   53.027759612   13.313202993    82.3317   1   6   0.0123   0.0049   0.0112   0.0036  -0.0021  -0.0058  -0.20   27.8
2067 578951.000   53.027759574   13.313202952    82.3360   1   6   0.0125   0.0050   0.0113   0.0036  -0.0022  -0.0059   0.00   28.1
2067 578951.200   53.027759478   13.313202922    82.3358   1   6   0.0130   0.0052   0.0114   0.0037  -0.0022  -0.0061  -1.80   28.3
2067 578951.400   53.027759473   13.313202961    82.3371   1   6   0.0128   0.0051   0.0113   0.0037  -0.0022  -0.0060  -1.60   28.5
2067 578951.600   53.027759517   13.313202927    82.3343   1   6   0.0127   0.0051   0.0113   0.0037  -0.0022  -0.0059  -1.40   28.8
2067 578951.800   53.027759514   13.313202956    82.3361   1   6   0.0126   0.0050   0.0112   0.0036  -0.0021  -0.0059  -1.20   29.0
2067 578952.000   53.027759561   13.313202945    82.3408   1   6   0.0125   0.0050   0.0111   0.0036  -0.0021  -0.0058  -1.00   29.2
2067 578952.200   53.027759582   13.313202974    82.3428   1   6   0.0124   0.0050   0.0111   0.0036  -0.0021  -0.0058  -0.80   29.5
2067 578952.400   53.027759579   13.313202980    82.3409   1   6   0.0123   0.0050   0.0111   0.0036  -0.0021  -0.0058  -0.60   29.7
2067 578952.600   53.027759510   13.313202937    82.3492   1   6   0.0123   0.0049   0.0111   0.0036  -0.0021  -0.0058  -0.40   30.0
2067 578952.800   53.027759471   13.313202926    82.3466   1   6   0.0123   0.0049   0.0112   0.0036  -0.0021  -0.0058  -0.20   30.2
2067 578953.000   53.027759489   13.313202892    82.3493   1   6   0.0125   0.0050   0.0113   0.0036  -0.0022  -0.0059   0.00   30.4
2067 578953.200   53.027759443   13.313202828    82.3537   1   6   0.0130   0.0052   0.0114   0.0037  -0.0022  -0.0061  -1.80   30.6
2067 578953.400   53.027759478   13.313202846    82.3554   1   6   0.0128   0.0051   0.0114   0.0037  -0.0022  -0.0060  -1.60   30.9
2067 578953.600   53.027759446   13.313202832    82.3573   1   6   0.0127   0.0051   0.0113   0.0037  -0.0022  -0.0059  -1.40   31.1
2067 578953.800   53.027759469   13.313202829    82.3555   1   6   0.0126   0.0050   0.0112   0.0036  -0.0022  -0.0059  -1.20   31.3
2067 578954.000   53.027759474   13.313202856    82.3520   1   6   0.0125   0.0050   0.0112   0.0036  -0.0021  -0.0058  -1.00   31.5
2067 578954.200   53.027759493   13.313202896    82.3481   1   6   0.0124   0.0050   0.0111   0.0036  -0.0021  -0.0058  -0.80   31.8
2067 578954.400   53.027759531   13.313202870    82.3418   1   6   0.0124   0.0050   0.0111   0.0036  -0.0021  -0.0058  -0.60   32.0
2067 578954.600   53.027759550   13.313202878    82.3410   1   6   0.0123   0.0049   0.0111   0.0036  -0.0021  -0.0058  -0.40   32.3
2067 578954.800   53.027759539   13.313202862    82.3405   1   6   0.0123   0.0049   0.0112   0.0036  -0.0021  -0.0058  -0.20   32.5
2067 578955.000   53.027759602   13.313202878    82.3398   1   6   0.0125   0.0050   0.0113   0.0036  -0.0022  -0.0059   0.00   32.7
2067 578955.200   53.027759630   13.313202928    82.3368   1   6   0.0130   0.0052   0.0115   0.0038  -0.0022  -0.0061  -1.80   33.0
2067 578955.400   53.027759668   13.313202934    82.3365   1   6   0.0128   0.0051   0.0114   0.0037  -0.0022  -0.0060  -1.60   33.1
2067 578955.600   53.027759631   13.313202921    82.3343   1   6   0.0127   0.0051   0.0113   0.0037  -0.0022  -0.0059  -1.40   33.3
2067 578955.800   53.027759663   13.313202947    82.3370   1   6   0.0126   0.0050   0.0112   0.0036  -0.0022  -0.0059  -1.20   33.5
2067 578956.000   53.027759650   13.313202957    82.3351   1   6   0.0125   0.0050   0.0112   0.0036  -0.0021  -0.0058  -1.00   33.7
2067 578956.200   53.027759663   13.313203017    82.3349   1   6   0.0124   0.0050   0.0111   0.0036  -0.0021  -0.0058  -0.80   34.0
2067 578956.400   53.027759704   13.313202982    82.3357   1   6   0.0124   0.0050   0.0111   0.0036  -0.0021  -0.0058  -0.60   34.2
2067 578956.600   53.027759681   13.313202944    82.3385   1   6   0.0123   0.0049   0.0111   0.0036  -0.0021  -0.0058  -0.40   34.4
2067 578956.800   53.027759561   13.313202893    82.3419   1   6   0.0123   0.0049   0.0112   0.0036  -0.0022  -0.0058  -0.20   34.6
2067 578957.000   53.027759486   13.313202859    82.3484   1   6   0.0125   0.0050   0.0113   0.0036  -0.0022  -0.0059   0.00   34.8
2067 578957.200   53.027759483   13.313202865    82.3494   1   6   0.0130   0.0052   0.0115   0.0038  -0.0022  -0.0061  -1.80   35.0
2067 578957.400   53.027759514   13.313202859    82.3499   1   6   0.0129   0.0051   0.0114   0.0037  -0.0022  -0.0060  -1.60   35.1
2067 578957.600   53.027759561   13.313202869    82.3516   1   6   0.0127   0.0051   0.0113   0.0037  -0.0022  -0.0059  -1.40   35.3
2067 578957.800   53.027759584   13.313202904    82.3536   1   6   0.0126   0.0050   0.0112   0.0036  -0.0022  -0.0059  -1.20   35.4
2067 578958.000   53.027759593   13.313202942    82.3538   1   6   0.0125   0.0050   0.0112   0.0036  -0.0022  -0.0058  -1.00   35.6
2067 578958.200   53.027759594   13.313202961    82.3517   1   6   0.0124   0.0050   0.0111   0.0036  -0.0022  -0.0058  -0.80   35.7
2067 578958.400   53.027759596   13.313202960    82.3479   1   6   0.0124   0.0050   0.0111   0.0036  -0.0021  -0.0058  -0.60   35.8
2067 578958.600   53.027759584   13.313202977    82.3456   1   6   0.0123   0.0050   0.0112   0.0036  -0.0022  -0.0058  -0.40   36.0
2067 578958.800   53.027759622   13.313202933    82.3468   1   6   0.0123   0.0049   0.0112   0.0036  -0.0022  -0.0058  -0.20   36.1
2067 578959.000   53.027759591   13.313202922    82.3478   1   6   0.0125   0.0050   0.0113   0.0036  -0.0022  -0.0059   0.00   36.2
2067 578959.200   53.027759522   13.313202911    82.3474   1   6   0.0130   0.0052   0.0115   0.0038  -0.0023  -0.0061  -1.80   36.4
2067 578959.400   53.027759555   13.313202972    82.3438   1   6   0.0129   0.0051   0.0114   0.0037  -0.0022  -0.0060  -1.60   36.5
2067 578959.600   53.027759546   13.313202977    82.3454   1   6   0.0127   0.0051   0.0113   0.0037  -0.0022  -0.0059  -1.40   36.6
2067 578959.800   53.027759562   13.313202942    82.3458   1   6   0.0126   0.0050   0.0112   0.0036  -0.0022  -0.0059  -1.20   36.7
2067 578960.000   53.027759580   13.313202929    82.3444   1   6   0.0125   0.0050   0.0112   0.0036  -0.0022  -0.0058  -1.00   36.8
2067 578960.200   53.027759535   13.313202957    82.3420   1   6   0.0124   0.0050   0.0112   0.0036  -0.0022  -0.0058  -0.80   36.9
2067 578960.400   53.027759558   13.313202989    82.3410   1   6   0.0124   0.0050   0.0111   0.0036  -0.0022  -0.0058  -0.60   37.0
2067 578960.600   53.027759582   13.313202983    82.3439   1   6   0.0123   0.0050   0.0112   0.0036  -0.0022  -0.0058  -0.40   37.1
2067 578960.800   53.027759578   13.313202989    82.3454   1   6   0.0123   0.0049   0.0112   0.0036  -0.0022  -0.0058  -0.20   37.2
2067 578961.000   53.027759550   13.313202934    82.3433   1   6   0.0125   0.0050   0.0113   0.0036  -0.0022  -0.0059   0.00   37.3
2067 578961.200   53.027759541   13.313202932    82.3434   1   6   0.0130   0.0052   0.0115   0.0038  -0.0023  -0.0061  -1.80   37.4
2067 578961.400   53.027759555   13.313202933    82.3393   1   6   0.0129   0.0051   0.0114   0.0037  -0.0022  -0.0060  -1.60   37.5
2067 578961.600   53.027759565   13.313202941    82.3414   1   6   0.0127   0.0051   0.0113   0.0037  -0.0022  -0.0060  -1.40   37.5
2067 578961.800   53.027759575   13.313202917    82.3432   1   6   0.0126   0.0051   0.0113   0.0036  -0.0022  -0.0059  -1.20   37.6
2067 578962.000   53.027759576   13.313202963    82.3420   1   6   0.0125   0.0050   0.0112   0.0036  -0.0022  -0.0059  -1.00   37.7
2067 578962.200   53.027759610   13.313202976    82.3394   1   6   0.0124   0.0050   0.0112   0.0036  -0.0022  -0.0058  -0.80   37.7
2067 578962.400   53.027759615   13.313202976    82.3409   1   6   0.0124   0.0050   0.0112   0.0036  -0.0022  -0.0058  -0.60   37.7
2067 578962.600   53.027759607   13.313202981    82.3397   1   6   0.0123   0.0050   0.0112   0.0036  -0.0022  -0.0058  -0.40   37.8
2067 578962.800   53.027759616   13.313203002    82.3381   1   6   0.0124   0.0050   0.0112   0.0036  -0.0022  -0.0058  -0.20   37.8
2067 578963.000   53.027759618   13.313203000    82.3361   1   6   0.0125   0.0050   0.0113   0.0036  -0.0022  -0.0059   0.00   37.8
2067 578963.200   53.027759621   13.313203000    82.3343   1   6   0.0130   0.0052   0.0115   0.0038  -0.0023  -0.0061  -1.80   37.8
2067 578963.400   53.027759642   13.313202950    82.3351   1   6   0.0129   0.0051   0.0114   0.0037  -0.0023  -0.0060  -1.60   37.8
2067 578963.600   53.027759657   13.313202941    82.3362   1   6   0.0127   0.0051   0.0113   0.0037  -0.0023  -0.0060  -1.40   37.8
2067 578963.800   53.027759704   13.313202973    82.3348   1   6   0.0126   0.0051   0.0113   0.0036  -0.0022  -0.0059  -1.20   37.8
2067 578964.000   53.027759701   13.313203003    82.3317   1   6   0.0125   0.0050   0.0112   0.0036  -0.0022  -0.0059  -1.00   37.8
2067 578964.200   53.027759623   13.313203003    82.3300   1   6   0.0124   0.0050   0.0112   0.0036  -0.0022  -0.0058  -0.80   37.8
2067 578964.400   53.027759631   13.313203049    82.3313   1   6   0.0124   0.0050   0.0112   0.0036  -0.0022  -0.0058  -0.60   37.7
2067 578964.600   53.027759675   13.313203041    82.3266   1   6   0.0123   0.0050   0.0112   0.0036  -0.0022  -0.0058  -0.40   37.7
2067 578964.800   53.027759699   13.313203030    82.3263   1   6   0.0124   0.0050   0.0113   0.0036  -0.0022  -0.0059  -0.20   37.7
2067 578965.000   53.027759673   13.313203021    82.3250   1   6   0.0125   0.0050   0.0114   0.0036  -0.0023  -0.0059   0.00   37.6
2067 578965.200   53.027759704   13.313202999    82.3265   1   6   0.0130   0.0052   0.0115   0.0038  -0.0023  -0.0061  -1.80   37.6
2067 578965.400   53.027759736   13.313202991    82.3304   1   6   0.0129   0.0051   0.0115   0.0037  -0.0023  -0.0060  -1.60   37.5
2067 578965.600   53.027759724   13.313202928    82.3314   1   6   0.0127   0.0051   0.0114   0.0037  -0.0023  -0.0060  -1.40   37.5
2067 578965.800   53.027759717   13.313202975    82.3303   1   6   0.0126   0.0051   0.0113   0.0036  -0.0023  -0.0059  -1.20   37.4
2067 578966.000   53.027759703   13.313202992    82.3311   1   6   0.0125   0.0050   0.0113   0.0036  -0.0023  -0.0059  -1.00   37.3
2067 578966.200   53.027759692   13.313203046    82.3299   1   6   0.0125   0.0050   0.0112   0.0036  -0.0023  -0.0058  -0.80   37.3
2067 578966.400   53.027759665   13.313203035    82.3336   1   6   0.0124   0.0050   0.0112   0.0036  -0.0023  -0.0058  -0.60   37.2
2067 578966.600   53.027759650   13.313203003    82.3328   1   6   0.0123   0.0050   0.0112   0.0036  -0.0023  -0.0058  -0.40   37.1
2067 578966.800   53.027759697   13.313202971    82.3301   1   6   0.0124   0.0050   0.0113   0.0036  -0.0023  -0.0059  -0.20   37.0
2067 578967.000   53.027759679   13.313202950    82.3328   1   6   0.0125   0.0050   0.0114   0.0036  -0.0023  -0.0060   0.00   36.9
2067 578967.200   53.027759621   13.313202931    82.3320   1   6   0.0130   0.0052   0.0116   0.0038  -0.0024  -0.0061  -1.80   36.8
2067 578967.400   53.027759639   13.313202937    82.3297   1   6   0.0129   0.0052   0.0115   0.0037  -0.0024  -0.0060  -1.60   36.7
2067 578967.600   53.027759629   13.313202918    82.3307   1   6   0.0127   0.0051   0.0114   0.0037  -0.0023  -0.0060  -1.40   36.6
2067 578967.800   53.027759639   13.313202990    82.3310   1   6   0.0126   0.0051   0.0114   0.0037  -0.0023  -0.0059  -1.20   36.5
2067 578968.000   53.027759670   13.313203068    82.3267   1   6   0.0125   0.0050   0.0113   0.0036  -0.0023  -0.0059  -1.00   36.4
2067 578968.200   53.027759694   13.313203097    82.3299   1   6   0.0125   0.0050   0.0113   0.0036  -0.0023  -0.0058  -0.80   36.2
2067 578968.400   53.027759722   13.313203037    82.3309   1   6   0.0124   0.0050   0.0113   0.0036  -0.0023  -0.0058  -0.60   36.1
2067 578968.600   53.027759721   13.313202998    82.3280   1   6   0.0124   0.0050   0.0113   0.0036  -0.0023  -0.0058  -0.40   36.0
2067 578968.800   53.027759721   13.313203018    82.3278   1   6   0.0124   0.0050   0.0114   0.0036  -0.0024  -0.0059  -0.20   35.9
2067 578969.000   53.027759740   13.313203003    82.3288   1   6   0.0125   0.0050   0.0115   0.0036  -0.0024  -0.0060   0.00   35.7
2067 578969.200   53.027759796   13.313203021    82.3277   1   6   0.0130   0.0052   0.0116   0.0038  -0.0025  -0.0061  -1.80   35.6
2067 578969.400   53.027759773   13.313202982    82.3227   1   6   0.0129   0.0052   0.0116   0.0037  -0.0024  -0.0061  -1.60   35.4
2067 578969.600   53.027759775   13.313203007    82.3250   1   6   0.0128   0.0051   0.0115   0.0037  -0.0024  -0.0060  -1.40   35.3
2067 578969.800   53.027759783   13.313203054    82.3199   1   6   0.0126   0.0051   0.0114   0.0037  -0.0024  -0.0059  -1.20   35.1
2067 578970.000   53.027759801   13.313203083    82.3210   1   6   0.0126   0.0051   0.0114   0.0036  -0.0024  -0.0059  -1.00   35.0
2067 578970.200   53.027759806   13.313203109    82.3219   1   6   0.0125   0.0050   0.0114   0.0036  -0.0024  -0.0059  -0.80   34.8
2067 578970.400   53.027759824   13.313203077    82.3256   1   6   0.0124   0.0050   0.0114   0.0036  -0.0024  -0.0058  -0.60   34.6
2067 578970.600   53.027759826   13.313203036    82.3269   1   6   0.0124   0.0050   0.0114   0.0036  -0.0024  -0.0059  -0.40   34.5
2067 578970.800   53.027759792   13.313203026    82.3220   1   6   0.0124   0.0050   0.0116   0.0036  -0.0025  -0.0060  -0.20   34.3
2067 578971.000   53.027759763   13.313203001    82.3158   1   6   0.0128   0.0051   0.0119   0.0037  -0.0026  -0.0062   0.00   34.1
2067 578971.200   53.027759724   13.313202956    82.3159   1   6   0.0140   0.0056   0.0123   0.0040  -0.0027  -0.0066  -2.80   33.9
2067 578971.400   53.027759723   13.313202963    82.3119   1   6   0.0138   0.0055   0.0122   0.0040  -0.0027  -0.0065  -2.60   33.8
2067 578971.600   53.027759689   13.313202890    82.3131   1   6   0.0136   0.0054   0.0120   0.0039  -0.0027  -0.0064  -2.40   33.6
2067 578971.800   53.027759660   13.313202897    82.3110   1   6   0.0134   0.0054   0.0119   0.0039  -0.0026  -0.0063  -2.20   33.4
2067 578972.000   53.027759699   13.313202887    82.3108   1   6   0.0132   0.0053   0.0118   0.0038  -0.0026  -0.0062  -2.00   33.3
2067 578972.200   53.027759702   13.313202905    82.3132   1   6   0.0131   0.0052   0.0117   0.0038  -0.0026  -0.0061  -1.80   33.1
2067 578972.400   53.027759669   13.313202830    82.3216   1   6   0.0129   0.0052   0.0116   0.0037  -0.0026  -0.0060  -1.60   32.9
2067 578972.600   53.027759698   13.313203006    82.3197   1   6   0.0128   0.0052   0.0116   0.0037  -0.0026  -0.0060  -1.40   32.7
2067 578972.800   53.027759804   13.313202951    82.3205   1   6   0.0126   0.0051   0.0115   0.0036  -0.0026  -0.0059  -1.20   32.5
2067 578973.000   53.027759734   13.313203036    82.3252   1   6   0.0125   0.0051   0.0115   0.0036  -0.0026  -0.0059  -1.00   32.3
2067 578973.200   53.027759708   13.313203081    82.3244   1   6   0.0125   0.0051   0.0115   0.0036  -0.0026  -0.0058  -0.80   32.1
2067 578973.400   53.027759776   13.313203026    82.3265   1   6   0.0124   0.0050   0.0115   0.0036  -0.0026  -0.0058  -0.60   31.9
2067 578973.600   53.027759750   13.313203062    82.3267   1   6   0.0124   0.0050   0.0115   0.0036  -0.0027  -0.0058  -0.40   31.7
2067 578973.800   53.027759755   13.313203006    82.3234   1   6   0.0124   0.0050   0.0116   0.0036  -0.0027  -0.0059  -0.20   31.6
2067 578974.000   53.027759786   13.313202983    82.3226   1   6   0.0125   0.0051   0.0118   0.0036  -0.0028  -0.0060   0.00   31.4
2067 578974.200   53.027759756   13.313202921    82.3199   1   6   0.0131   0.0053   0.0120   0.0038  -0.0029  -0.0062  -1.80   31.2
2067 578974.400   53.027759757   13.313202909    82.3159   1   6   0.0129   0.0053   0.0120   0.0037  -0.0030  -0.0061  -1.60   31.0
2067 578974.600   53.027759790   13.313202929    82.3111   1   6   0.0128   0.0052   0.0120   0.0037  -0.0031  -0.0061  -1.40   30.8
2067 578974.800   53.027759752   13.313202947    82.3100   1   6   0.0127   0.0052   0.0121   0.0037  -0.0031  -0.0060  -1.20   30.7
2067 578975.000   53.027759762   13.313202941    82.3081   1   6   0.0126   0.0052   0.0122   0.0037  -0.0032  -0.0060  -1.00   30.5
2067 578975.200   53.027759692   13.313202965    82.3078   1   6   0.0125   0.0051   0.0123   0.0037  -0.0033  -0.0060  -0.80   30.3
2067 578975.400   53.027759689   13.313203007    82.3077   1   6   0.0124   0.0051   0.0125   0.0037  -0.0034  -0.0060  -0.60   30.1
2067 578975.600   53.027759704   13.313202964    82.3075   1   6   0.0124   0.0051   0.0127   0.0037  -0.0036  -0.0061  -0.40   30.0
2067 578975.800   53.027759717   13.313202955    82.3064   1   6   0.0124   0.0052   0.0129   0.0037  -0.0037  -0.0061  -0.20   29.8
2067 578976.000   53.027759775   13.313203000    82.3049   1   6   0.0126   0.0052   0.0132   0.0037  -0.0039  -0.0062   0.00   29.6
2067 578976.200   53.027759909   13.313203059    82.3025   1   6   0.0131   0.0055   0.0136   0.0038  -0.0042  -0.0063  -1.80   29.4
2067 578976.400   53.027759849   13.313203077    82.3046   1   6   0.0129   0.0055   0.0137   0.0037  -0.0044  -0.0062  -1.60   29.2
2067 578976.600   53.027759852   13.313203070    82.3041   1   6   0.0128   0.0056   0.0137   0.0036  -0.0046  -0.0060  -1.40   29.0
2067 578976.800   53.027759814   13.313203022    82.3056   1   6   0.0127   0.0057   0.0137   0.0034  -0.0048  -0.0058  -1.20   28.8
2067 578977.000   53.027759828   13.313203051    82.3119   1   6   0.0126   0.0058   0.0136   0.0032  -0.0050  -0.0056  -1.00   28.6
2067 578977.200   53.027759838   13.313203063    82.3091   1   6   0.0125   0.0059   0.0134   0.0031  -0.0051  -0.0054  -0.80   28.4
2067 578977.400   53.027759884   13.313203054    82.3070   1   5   0.0125   0.0059   0.0130   0.0031  -0.0050  -0.0053  -0.60   28.2
2067 578977.600   53.027759937   13.313203051    82.3071   1   6   0.0124   0.0058   0.0126   0.0031  -0.0047  -0.0053  -0.40   28.0
2067 578977.800   53.027759901   13.313203055    82.3070   1   5   0.0124   0.0055   0.0120   0.0032  -0.0039  -0.0055  -0.20   27.8
2067 578978.000   53.027759874   13.313203043    82.3045   1   6   0.0126   0.0050   0.0113   0.0036  -0.0021  -0.0060   0.00   27.6
2067 578978.200   53.027759786   13.313203000    82.3047   1   6   0.0131   0.0052   0.0115   0.0038  -0.0022  -0.0062  -1.80   27.5
2067 578978.400   53.027759781   13.313203006    82.3020   1   6   0.0129   0.0051   0.0114   0.0037  -0.0022  -0.0061  -1.60   27.3
2067 578978.600   53.027759803   13.313203039    82.3007   1   6   0.0128   0.0051   0.0113   0.0037  -0.0021  -0.0060  -1.40   27.1
2067 578978.800   53.027759780   13.313203027    82.3019   1   6   0.0127   0.0050   0.0112   0.0037  -0.0021  -0.0059  -1.20   26.9
2067 578979.000   53.027759807   13.313203021    82.3045   1   6   0.0126   0.0050   0.0112   0.0036  -0.0021  -0.0059  -1.00   26.7
2067 578979.200   53.027759774   13.313203019    82.3073   1   6   0.0125   0.0050   0.0111   0.0036  -0.0021  -0.0059  -0.80   26.6
2067 578979.400   53.027759724   13.313202991    82.3078   1   6   0.0124   0.0050   0.0111   0.0036  -0.0021  -0.0059  -0.60   26.4
2067 578979.600   53.027759708   13.313202989    82.3132   1   6   0.0124   0.0050   0.0111   0.0036  -0.0021  -0.0059  -0.40   26.2
2067 578979.800   53.027759728   13.313202987    82.3164   1   6   0.0124   0.0049   0.0112   0.0036  -0.0021  -0.0059  -0.20   26.0
2067 578980.000   53.027759734   13.313202912    82.3202   1   6   0.0126   0.0050   0.0113   0.0036  -0.0021  -0.0060   0.00   25.8
2067 578980.200   53.027759718   13.313202943    82.3190   1   6   0.0131   0.0052   0.0115   0.0038  -0.0022  -0.0062  -1.80   25.6
2067 578980.400   53.027759733   13.313202948    82.3183   1   6   0.0129   0.0051   0.0114   0.0037  -0.0022  -0.0061  -1.60   25.5
2067 578980.600   53.027759758   13.313202961    82.3190   1   6   0.0128   0.0051   0.0113   0.0037  -0.0021  -0.0060  -1.40   25.3
2067 578980.800   53.027759731   13.313202971    82.3155   1   6   0.0127   0.0050   0.0112   0.0037  -0.0021  -0.0060  -1.20   25.1
2067 578981.000   53.027759731   13.313202975    82.3175   1   6   0.0126   0.0050   0.0112   0.0036  -0.0021  -0.0059  -1.00   24.9
2067 578981.200   53.027759760   13.313202982    82.3183   1   6   0.0125   0.0050   0.0111   0.0036  -0.0021  -0.0059  -0.80   24.8
2067 578981.400   53.027759765   13.313203012    82.3195   1   6   0.0124   0.0050   0.0111   0.0036  -0.0021  -0.0059  -0.60   24.6
2067 578981.600   53.027759801   13.313202954    82.3138   1   6   0.0124   0.0050   0.0112   0.0036  -0.0021  -0.0059  -0.40   24.4
2067 578981.800   53.027759805   13.313202956    82.3108   1   6   0.0124   0.0049   0.0112   0.0036  -0.0021  -0.0059  -0.20   24.2
2067 578982.000   53.027759893   13.313202954    82.3016   1   6   0.0126   0.0050   0.0113   0.0036  -0.0021  -0.0060   0.00   24.0
2067 578982.200   53.027759953   13.313203026    82.2915   1   6   0.0131   0.0052   0.0115   0.0038  -0.0022  -0.0062  -1.80   23.8
2067 578982.400   53.027759969   13.313202977    82.2929   1   6   0.0129   0.0051   0.0114   0.0037  -0.0022  -0.0061  -1.60   23.7
2067 578982.600   53.027759938   13.313202966    82.2872   1   6   0.0128   0.0051   0.0113   0.0037  -0.0022  -0.0060  -1.40   23.6
2067 578982.800   53.027759897   13.313202986    82.2933   1   6   0.0127   0.0051   0.0112   0.0037  -0.0021  -0.0060  -1.20   23.4
2067 578983.000   53.027759891   13.313203002    82.2949   1   6   0.0126   0.0050   0.0112   0.0036  -0.0021  -0.0059  -1.00   23.3
2067 578983.200   53.027759911   13.313203058    82.2965   1   6   0.0125   0.0050   0.0112   0.0036  -0.0021  -0.0059  -0.80   23.1
2067 578983.400   53.027759921   13.313203019    82.2945   1   6   0.0124   0.0050   0.0111   0.0036  -0.0021  -0.0059  -0.60   22.9
2067 578983.600   53.027759969   13.313203019    82.2954   1   6   0.0124   0.0050   0.0112   0.0036  -0.0021  -0.0059  -0.40   22.7
2067 578983.800   53.027759947   13.313203004    82.2955   1   6   0.0124   0.0050   0.0112   0.0036  -0.0021  -0.0059  -0.20   22.6
2067 578984.000   53.027759918   13.313203009    82.2942   1   6   0.0126   0.0050   0.0113   0.0036  -0.0022  -0.0060   0.00   22.4
2067 578984.200   53.027759926   13.313203050    82.2949   1   6   0.0131   0.0052   0.0115   0.0038  -0.0022  -0.0062  -1.80   22.2
2067 578984.400   53.027759939   13.313203033    82.2944   1   6   0.0129   0.0051   0.0114   0.0037  -0.0022  -0.0061  -1.60   22.1
2067 578984.600   53.027759940   13.313203026    82.2943   1   6   0.0128   0.0051   0.0113   0.0037  -0.0022  -0.0060  -1.40   22.0
2067 578984.800   53.027759953   13.313203039    82.2958   1   6   0.0127   0.0051   0.0113   0.0037  -0.0022  -0.0060  -1.20   21.8
2067 578985.000   53.027759928   13.313203081    82.2933   1   6   0.0126   0.0050   0.0112   0.0036  -0.0021  -0.0059  -1.00   21.6
2067 578985.200   53.027759890   13.313203078    82.2905   1   6   0.0125   0.0050   0.0112   0.0036  -0.0021  -0.0059  -0.80   21.5
2067 578985.400   53.027759885   13.313203067    82.2907   1   6   0.0124   0.0050   0.0112   0.0036  -0.0021  -0.0059  -0.60   21.3
2067 578985.600   53.027759882   13.313203095    82.2935   1   6   0.0124   0.0050   0.0112   0.0036  -0.0021  -0.0059  -0.40   21.2
2067 578985.800   53.027759872   13.313203081    82.2974   1   6   0.0124   0.0050   0.0112   0.0036  -0.0022  -0.0059  -0.20   21.0
2067 578986.000   53.027759879   13.313202988    82.2957   1   6   0.0126   0.0050   0.0113   0.0036  -0.0022  -0.0060   0.00   20.9
2067 578986.200   53.027759836   13.313202952    82.2982   1   6   0.0131   0.0052   0.0115   0.0038  -0.0022  -0.0062  -1.80   20.7
2067 578986.400   53.027759834   13.313202960    82.3004   1   6   0.0129   0.0051   0.0114   0.0037  -0.0022  -0.0061  -1.60   20.6
2067 578986.600   53.027759819   13.313202955    82.3046   1   6   0.0128   0.0051   0.0113   0.0037  -0.0022  -0.0060  -1.40   20.4
2067 578986.800   53.027759794   13.313202980    82.3050   1   6   0.0127   0.0051   0.0113   0.0037  -0.0022  -0.0060  -1.20   20.3
2067 578987.000   53.027759802   13.313202966    82.3045   1   6   0.0126   0.0050   0.0112   0.0036  -0.0022  -0.0059  -1.00   20.1
2067 578987.200   53.027759809   13.313202982    82.3052   1   6   0.0125   0.0050   0.0112   0.0036  -0.0022  -0.0059  -0.80   19.9
2067 578987.400   53.027759858   13.313202966    82.3072   1   6   0.0124   0.0050   0.0112   0.0036  -0.0022  -0.0059  -0.60   19.8
2067 578987.600   53.027759872   13.313202958    82.3095   1   6   0.0124   0.0050   0.0112   0.0036  -0.0022  -0.0059  -0.40   19.6
2067 578987.800   53.027759869   13.313202929    82.3097   1   6   0.0124   0.0050   0.0113   0.0036  -0.0022  -0.0059  -0.20   19.5
2067 578988.000   53.027759870   13.313202949    82.3066   1   6   0.0126   0.0050   0.0114   0.0036  -0.0022  -0.0060   0.00   19.3
2067 578988.200   53.027759868   13.313202948    82.3045   1   6   0.0131   0.0052   0.0115   0.0038  -0.0023  -0.0062  -1.80   19.2
2067 578988.400   53.027759869   13.313202947    82.3003   1   6   0.0129   0.0051   0.0114   0.0037  -0.0023  -0.0061  -1.60   19.0
2067 578988.600   53.027759875   13.313202926    82.3026   1   6   0.0128   0.0051   0.0114   0.0037  -0.0022  -0.0060  -1.40   18.9
2067 578988.800   53.027759872   13.313202955    82.3067   1   6   0.0127   0.0051   0.0113   0.0037  -0.0022  -0.0060  -1.20   18.7
2067 578989.000   53.027759850   13.313202970    82.3056   1   6   0.0126   0.0050   0.0112   0.0036  -0.0022  -0.0059  -1.00   18.6
2067 578989.200   53.027759886   13.313203000    82.3066   1   6   0.0125   0.0050   0.0112   0.0036  -0.0022  -0.0059  -0.80   18.5
2067 578989.400   53.027759903   13.313202983    82.3065   1   6   0.0125   0.0050   0.0112   0.0036  -0.0022  -0.0059  -0.60   18.4
2067 578989.600   53.027759878   13.313202933    82.3061   1   6   0.0124   0.0050   0.0112   0.0036  -0.0022  -0.0059  -0.40   18.2
2067 578989.800   53.027759885   13.313202944    82.3037   1   6   0.0124   0.0050   0.0113   0.0036  -0.0022  -0.0059  -0.20   18.1
2067 578990.000   53.027759874   13.313202942    82.3024   1   6   0.0126   0.0050   0.0114   0.0036  -0.0023  -0.0060   0.00   17.9
2067 578990.200   53.027759882   13.313202937    82.3008   1   6   0.0131   0.0052   0.0116   0.0038  -0.0023  -0.0062  -1.80   17.8
2067 578990.400   53.027759888   13.313202923    82.2997   1   6   0.0130   0.0052   0.0115   0.0037  -0.0023  -0.0061  -1.60   17.7
2067 578990.600   53.027759909   13.313202935    82.2968   1   6   0.0128   0.0051   0.0114   0.0037  -0.0023  -0.0060  -1.40   17.5
2067 578990.800   53.027759900   13.313202923    82.2940   1   6   0.0127   0.0051   0.0113   0.0037  -0.0023  -0.0060  -1.20   17.4
2067 578991.000   53.027759894   13.313202956    82.2921   1   6   0.0126   0.0050   0.0113   0.0036  -0.0023  -0.0059  -1.00   17.3
2067 578991.200   53.027759877   13.313202968    82.2957   1   6   0.0125   0.0050   0.0113   0.0036  -0.0022  -0.0059  -0.80   17.2
2067 578991.400   53.027759907   13.313202940    82.2966   1   6   0.0125   0.0050   0.0112   0.0036  -0.0022  -0.0059  -0.60   17.0
2067 578991.600   53.027759892   13.313202937    82.2959   1   6   0.0124   0.0050   0.0113   0.0036  -0.0023  -0.0059  -0.40   16.9
2067 578991.800   53.027759880   13.313202971    82.2932   1   6   0.0124   0.0050   0.0113   0.0036  -0.0023  -0.0059  -0.20   16.8
2067 578992.000   53.027759906   13.313202966    82.2953   1   6   0.0126   0.0050   0.0114   0.0036  -0.0023  -0.0060   0.00   16.7
2067 578992.200   53.027759922   13.313203041    82.2900   1   6   0.0131   0.0052   0.0116   0.0038  -0.0024  -0.0062  -1.80   16.5
2067 578992.400   53.027759923   13.313203019    82.2908   1   6   0.0130   0.0052   0.0115   0.0037  -0.0024  -0.0061  -1.60   16.4
2067 578992.600   53.027759917   13.313203063    82.2883   1   6   0.0128   0.0051   0.0114   0.0037  -0.0023  -0.0061  -1.40   16.3
2067 578992.800   53.027759933   13.313203042    82.2873   1   6   0.0127   0.0051   0.0114   0.0037  -0.0023  -0.0060  -1.20   16.2
2067 578993.000   53.027759942   13.313202993    82.2839   1   6   0.0126   0.0050   0.0113   0.0036  -0.0023  -0.0060  -1.00   16.1
2067 578993.200   53.027759971   13.313203002    82.2801   1   6   0.0125   0.0050   0.0113   0.0036  -0.0023  -0.0059  -0.80   15.9
2067 578993.400   53.027759959   13.313203050    82.2805   1   6   0.0125   0.0050   0.0113   0.0036  -0.0023  -0.0059  -0.60   15.8
2067 578993.600   53.027759963   13.313203078    82.2860   1   6   0.0124   0.0050   0.0114   0.0036  -0.0023  -0.0059  -0.40   15.7
2067 578993.800   53.027759967   13.313203046    82.2911   1   6   0.0125   0.0050   0.0116   0.0036  -0.0024  -0.0061  -0.20   15.6
2067 578994.000   53.027759966   13.313203050    82.2895   1   6   0.0129   0.0051   0.0118   0.0037  -0.0025  -0.0063   0.00   15.4
2067 578994.200   53.027759955   13.313203032    82.2923   1   6   0.0141   0.0056   0.0123   0.0041  -0.0026  -0.0067  -2.80   15.3
2067 578994.400   53.027759968   13.313203015    82.2874   1   6   0.0139   0.0055   0.0121   0.0040  -0.0026  -0.0066  -2.60   15.2
2067 578994.600   53.027759964   13.313202977    82.2873   1   6   0.0137   0.0054   0.0120   0.0039  -0.0026  -0.0065  -2.40   15.1
2067 578994.800   53.027759979   13.313203030    82.2851   1   6   0.0135   0.0053   0.0119   0.0039  -0.0025  -0.0064  -2.20   15.0
2067 578995.000   53.027759973   13.313203068    82.2819   1   6   0.0133   0.0053   0.0118   0.0038  -0.0025  -0.0063  -2.00   14.9
2067 578995.200   53.027759971   13.313203062    82.2799   1   6   0.0131   0.0052   0.0117   0.0038  -0.0025  -0.0062  -1.80   14.8
2067 578995.400   53.027759972   13.313203053    82.2817   1   6   0.0130   0.0052   0.0116   0.0037  -0.0025  -0.0061  -1.60   14.7
2067 578995.600   53.027759960   13.313203044    82.2811   1   6   0.0128   0.0051   0.0115   0.0037  -0.0025  -0.0061  -1.40   14.6
2067 578995.800   53.027760002   13.313203068    82.2782   1   6   0.0127   0.0051   0.0115   0.0037  -0.0025  -0.0060  -1.20   14.4
2067 578996.000   53.027760028   13.313203072    82.2808   1   6   0.0126   0.0051   0.0114   0.0036  -0.0025  -0.0059  -1.00   14.3
2067 578996.200   53.027760058   13.313203049    82.2804   1   6   0.0125   0.0050   0.0114   0.0036  -0.0025  -0.0059  -0.80   14.2
2067 578996.400   53.027759990   13.313203059    82.2828   1   6   0.0125   0.0050   0.0114   0.0036  -0.0025  -0.0059  -0.60   14.1
2067 578996.600   53.027760000   13.313203033    82.2872   1   6   0.0124   0.0050   0.0114   0.0036  -0.0025  -0.0059  -0.40   14.0
2067 578996.800   53.027759952   13.313203077    82.2870   1   6   0.0125   0.0050   0.0115   0.0036  -0.0025  -0.0059  -0.20   13.9
2067 578997.000   53.027759886   13.313203028    82.2921   1   6   0.0126   0.0051   0.0116   0.0036  -0.0026  -0.0060   0.00   13.8
2067 578997.200   53.027759814   13.313202921    82.2958   1   6   0.0131   0.0053   0.0118   0.0038  -0.0026  -0.0062  -1.80   13.7
2067 578997.400   53.027759765   13.313202881    82.2942   1   6   0.0130   0.0052   0.0117   0.0037  -0.0026  -0.0061  -1.60   13.6
2067 578997.600   53.027759793   13.313202887    82.2936   1   6   0.0128   0.0052   0.0116   0.0037  -0.0027  -0.0061  -1.40   13.5
2067 578997.800   53.027759846   13.313202896    82.2940   1   6   0.0127   0.0051   0.0116   0.0037  -0.0027  -0.0060  -1.20   13.4
2067 578998.000   53.027759868   13.313202903    82.2937   1   6   0.0126   0.0051   0.0116   0.0036  -0.0027  -0.0060  -1.00   13.3
2067 578998.200   53.027759926   13.313202909    82.2930   1   6   0.0125   0.0051   0.0116   0.0036  -0.0027  -0.0059  -0.80   13.2
2067 578998.400   53.027759922   13.313202918    82.2929   1   6   0.0125   0.0051   0.0117   0.0036  -0.0028  -0.0059  -0.60   13.1
2067 578998.600   53.027759904   13.313202951    82.2927   1   6   0.0124   0.0051   0.0118   0.0036  -0.0029  -0.0059  -0.40   13.0
2067 578998.800   53.027759904   13.313202930    82.2914   1   6   0.0125   0.0051   0.0119   0.0036  -0.0030  -0.0060  -0.20   12.9
2067 578999.000   53.027759938   13.313202937    82.2885   1   6   0.0126   0.0051   0.0122   0.0037  -0.0031  -0.0061   0.00   12.8
2067 578999.200   53.027759982   13.313202933    82.2844   1   6   0.0131   0.0053   0.0125   0.0038  -0.0033  -0.0063  -1.80   12.7
2067 578999.400   53.027759922   13.313202963    82.2816   1   6   0.0130   0.0053   0.0125   0.0038  -0.0034  -0.0063  -1.60   12.6
2067 578999.600   53.027759921   13.313202952    82.2831   1   6   0.0129   0.0053   0.0126   0.0038  -0.0035  -0.0063  -1.40   12.5
2067 578999.800   53.027759908   13.313202904    82.2867   1   6   0.0127   0.0052   0.0127   0.0038  -0.0036  -0.0062  -1.20   12.4
2067 579000.000   53.027759965   13.313202925    82.2831   1   6   0.0126   0.0052   0.0129   0.0037  -0.0037  -0.0062  -1.00   12.3
2067 579000.200   53.027759928   13.313202945    82.2847   1   6   0.0126   0.0052   0.0130   0.0037  -0.0038  -0.0062  -0.80   12.3
2067 579000.400   53.027759942   13.313202918    82.2841   1   6   0.0125   0.0052   0.0132   0.0037  -0.0040  -0.0061  -0.60   12.2
2067 579000.600   53.027759938   13.313202935    82.2852   1   6   0.0125   0.0053   0.0134   0.0036  -0.0042  -0.0060  -0.40   12.1
2067 579000.800   53.027759950   13.313202950    82.2790   1   6   0.0125   0.0054   0.0136   0.0035  -0.0045  -0.0060  -0.20   12.0
2067 579001.000   53.027759955   13.313202950    82.2722   1   6   0.0127   0.0056   0.0138   0.0034  -0.0048  -0.0059   0.00   11.9
2067 579001.200   53.027760027   13.313202957    82.2686   1   6   0.0132   0.0061   0.0139   0.0034  -0.0052  -0.0059  -1.80   11.9
2067 579001.400   53.027760030   13.313202951    82.2717   1   6   0.0130   0.0061   0.0136   0.0032  -0.0052  -0.0057  -1.60   11.8
2067 579001.600   53.027760033   13.313202934    82.2682   1   5   0.0129   0.0060   0.0132   0.0032  -0.0050  -0.0055  -1.40   11.7
2067 579001.800   53.027760028   13.313202986    82.2673   1   6   0.0128   0.0059   0.0127   0.0032  -0.0047  -0.0055  -1.20   11.6
2067 579002.000   53.027760045   13.313203021    82.2664   1   5   0.0127   0.0056   0.0120   0.0033  -0.0039  -0.0056  -1.00   11.6
2067 579002.200   53.027760023   13.313203047    82.2667   1   6   0.0126   0.0050   0.0113   0.0036  -0.0022  -0.0059  -0.80   11.5
2067 579002.400   53.027760007   13.313203018    82.2666   1   6   0.0125   0.0050   0.0112   0.0036  -0.0022  -0.0059  -0.60   11.4
2067 579002.600   53.027760055   13.313202979    82.2641   1   6   0.0125   0.0050   0.0113   0.0036  -0.0022  -0.0059  -0.40   11.3
2067 579002.800   53.027760001   13.313203037    82.2632   1   6   0.0125   0.0050   0.0113   0.0036  -0.0023  -0.0060  -0.20   11.3
2067 579003.000   53.027759988   13.313203029    82.2611   1   6   0.0126   0.0050   0.0114   0.0037  -0.0023  -0.0061   0.00   11.2
2067 579003.200   53.027759996   13.313203026    82.2588   1   6   0.0131   0.0052   0.0116   0.0038  -0.0024  -0.0062  -1.80   11.1
2067 579003.400   53.027760011   13.313203019    82.2598   1   6   0.0130   0.0052   0.0115   0.0037  -0.0023  -0.0062  -1.60   11.0
2067 579003.600   53.027759980   13.313203004    82.2592   1   6   0.0129   0.0051   0.0114   0.0037  -0.0023  -0.0061  -1.40   10.9
2067 579003.800   53.027760017   13.313203023    82.2595   1   6   0.0127   0.0051   0.0114   0.0037  -0.0023  -0.0060  -1.20   10.9
2067 579004.000   53.027760074   13.313203038    82.2575   1   6   0.0126   0.0050   0.0113   0.0037  -0.0023  -0.0060  -1.00   10.8
2067 579004.200   53.027760085   13.313203020    82.2639   1   6   0.0126   0.0050   0.0113   0.0036  -0.0023  -0.0059  -0.80   10.7
2067 579004.400   53.027760132   13.313203067    82.2664   1   6   0.0125   0.0050   0.0113   0.0036  -0.0023  -0.0059  -0.60   10.7
2067 579004.600   53.027760083   13.313203038    82.2685   1   6   0.0125   0.0050   0.0113   0.0036  -0.0023  -0.0059  -0.40   10.6
2067 579004.800   53.027760088   13.313203037    82.2729   1   6   0.0125   0.0050   0.0114   0.0036  -0.0023  -0.0060  -0.20   10.5
2067 579005.000   53.027760097   13.313203031    82.2740   1   6   0.0126   0.0050   0.0115   0.0037  -0.0024  -0.0061   0.00   10.5
2067 579005.200   53.027759999   13.313203029    82.2777   1   6   0.0132   0.0052   0.0117   0.0038  -0.0024  -0.0062  -1.80   10.4
2067 579005.400   53.027759993   13.313203034    82.2781   1   6   0.0130   0.0052   0.0116   0.0037  -0.0024  -0.0062  -1.60   10.3
2067 579005.600   53.027760019   13.313203019    82.2806   1   6   0.0129   0.0051   0.0115   0.0037  -0.0024  -0.0061  -1.40   10.3
2067 579005.800   53.027760034   13.313203057    82.2788   1   6   0.0127   0.0051   0.0114   0.0037  -0.0024  -0.0060  -1.20   10.2
2067 579006.000   53.027760022   13.313203057    82.2778   1   6   0.0126   0.0051   0.0114   0.0037  -0.0024  -0.0060  -1.00   10.2
2067 579006.200   53.027759987   13.313203055    82.2784   1   6   0.0126   0.0050   0.0114   0.0036  -0.0024  -0.0059  -0.80   10.1
2067 579006.400   53.027760013   13.313203028    82.2799   1   6   0.0125   0.0050   0.0114   0.0036  -0.0024  -0.0059  -0.60   10.1
2067 579006.600   53.027760038   13.313203024    82.2797   1   6   0.0125   0.0050   0.0114   0.0036  -0.0024  -0.0059  -0.40   10.0
2067 579006.800   53.027760028   13.313203005    82.2772   1   6   0.0125   0.0050   0.0114   0.0036  -0.0024  -0.0060  -0.20   10.0
2067 579007.000   53.027760025   13.313203002    82.2745   1   6   0.0126   0.0050   0.0116   0.0037  -0.0025  -0.0061   0.00    9.9
2067 579007.200   53.027760015   13.313202982    82.2748   1   6   0.0132   0.0053   0.0117   0.0038  -0.0026  -0.0062  -1.80    9.9
2067 579007.400   53.027760040   13.313202999    82.2697   1   6   0.0130   0.0052   0.0116   0.0037  -0.0025  -0.0062  -1.60    9.8
2067 579007.600   53.027760058   13.313202996    82.2722   1   6   0.0129   0.0052   0.0116   0.0037  -0.0025  -0.0061  -1.40    9.7
2067 579007.800   53.027760119   13.313202996    82.2720   1   6   0.0127   0.0051   0.0115   0.0037  -0.0026  -0.0060  -1.20    9.7
2067 579008.000   53.027760133   13.313202986    82.2714   1   6   0.0127   0.0051   0.0115   0.0036  -0.0026  -0.0060  -1.00    9.6
2067 579008.200   53.027760134   13.313202991    82.2720   1   6   0.0126   0.0051   0.0115   0.0036  -0.0026  -0.0059  -0.80    9.6
2067 579008.400   53.027760161   13.313202933    82.2730   1   6   0.0125   0.0051   0.0115   0.0036  -0.0026  -0.0059  -0.60    9.5
2067 579008.600   53.027760167   13.313202947    82.2720   1   6   0.0125   0.0050   0.0116   0.0036  -0.0027  -0.0059  -0.40    9.4
2067 579008.800   53.027760166   13.313202979    82.2691   1   6   0.0125   0.0050   0.0117   0.0036  -0.0027  -0.0060  -0.20    9.4
2067 579009.000   53.027760161   13.313203007    82.2697   1   6   0.0127   0.0051   0.0119   0.0037  -0.0028  -0.0061   0.00    9.3
2067 579009.200   53.027760128   13.313203011    82.2675   1   6   0.0132   0.0053   0.0121   0.0038  -0.0030  -0.0063  -1.80    9.3
2067 579009.400   53.027760116   13.313203034    82.2668   1   6   0.0130   0.0053   0.0121   0.0038  -0.0030  -0.0062  -1.60    9.2
2067 579009.600   53.027760139   13.313202989    82.2678   1   6   0.0129   0.0052   0.0122   0.0037  -0.0031  -0.0062  -1.40    9.2
2067 579009.800   53.027760217   13.313202989    82.2679   1   6   0.0128   0.0052   0.0122   0.0037  -0.0032  -0.0062  -1.20    9.1
2067 579010.000   53.027760194   13.313202949    82.2712   1   6   0.0127   0.0052   0.0123   0.0037  -0.0033  -0.0062  -1.00    9.1
2067 579010.200   53.027760180   13.313202919    82.2702   1   6   0.0126   0.0052   0.0125   0.0037  -0.0034  -0.0062  -0.80    9.0
2067 579010.400   53.027760163   13.313202934    82.2709   1   6   0.0125   0.0052   0.0126   0.0037  -0.0035  -0.0062  -0.60    9.0
2067 579010.600   53.027760177   13.313202965    82.2706   1   6   0.0125   0.0052   0.0128   0.0037  -0.0036  -0.0062  -0.40    8.9
2067 579010.800   53.027760167   13.313202954    82.2736   1   6   0.0125   0.0052   0.0131   0.0037  -0.0038  -0.0062  -0.20    8.8
2067 579011.000   53.027760189   13.313202964    82.2700   1   6   0.0127   0.0053   0.0134   0.0037  -0.0040  -0.0062   0.00    8.8
2067 579011.200   53.027760201   13.313202945    82.2663   1   6   0.0132   0.0056   0.0136   0.0038  -0.0044  -0.0063  -1.80    8.7
2067 579011.400   53.027760204   13.313202924    82.2686   1   6   0.0130   0.0056   0.0136   0.0036  -0.0046  -0.0061  -1.60    8.7
2067 579011.600   53.027760216   13.313202912    82.2713   1   6   0.0129   0.0057   0.0134   0.0035  -0.0048  -0.0058  -1.40    8.6
2067 579011.800   53.027760172   13.313202979    82.2713   1   6   0.0128   0.0059   0.0131   0.0033  -0.0048  -0.0055  -1.20    8.6
2067 579012.000   53.027760259   13.313202983    82.2702   1   6   0.0127   0.0059   0.0126   0.0032  -0.0046  -0.0055  -1.00    8.5
2067 579012.200   53.027760221   13.313203016    82.2686   1   5   0.0126   0.0056   0.0118   0.0033  -0.0038  -0.0056  -0.80    8.5
2067 579012.400   53.027760213   13.313203010    82.2633   1   6   0.0125   0.0050   0.0111   0.0036  -0.0020  -0.0060  -0.60    8.4
2067 579012.600   53.027760244   13.313202999    82.2612   1   6   0.0125   0.0049   0.0111   0.0036  -0.0020  -0.0060  -0.40    8.4
2067 579012.800   53.027760237   13.313202969    82.2642   1   6   0.0125   0.0049   0.0112   0.0036  -0.0020  -0.0060  -0.20    8.3
2067 579013.000   53.027760233   13.313202948    82.2555   1   6   0.0127   0.0050   0.0113   0.0037  -0.0020  -0.0061   0.00    8.3
2067 579013.200   53.027760210   13.313203021    82.2536   1   6   0.0132   0.0052   0.0114   0.0038  -0.0021  -0.0063  -1.80    8.2
2067 579013.400   53.027760159   13.313203033    82.2502   1   6   0.0130   0.0051   0.0113   0.0038  -0.0020  -0.0062  -1.60    8.2
2067 579013.600   53.027760161   13.313203016    82.2524   1   6   0.0129   0.0051   0.0113   0.0037  -0.0020  -0.0061  -1.40    8.1
2067 579013.800   53.027760130   13.313203037    82.2545   1   6   0.0128   0.0050   0.0112   0.0037  -0.0020  -0.0061  -1.20    8.1
2067 579014.000   53.027760140   13.313203026    82.2520   1   6   0.0127   0.0050   0.0111   0.0037  -0.0020  -0.0060  -1.00    8.0
2067 579014.200   53.027760157   13.313203002    82.2527   1   6   0.0126   0.0050   0.0111   0.0036  -0.0020  -0.0060  -0.80    8.0
2067 579014.400   53.027760181   13.313203019    82.2525   1   6   0.0125   0.0050   0.0111   0.0036  -0.0020  -0.0060  -0.60    7.9
2067 579014.600   53.027760184   13.313203038    82.2504   1   6   0.0125   0.0050   0.0111   0.0036  -0.0020  -0.0060  -0.40    7.9
2067 579014.800   53.027760231   13.313203082    82.2461   1   6   0.0125   0.0049   0.0112   0.0036  -0.0020  -0.0060  -0.20    7.8
2067 579015.000   53.027760279   13.313203120    82.2435   1   6   0.0127   0.0050   0.0113   0.0037  -0.0020  -0.0061   0.00    7.8
2067 579015.200   53.027760402   13.313203084    82.2468   1   6   0.0132   0.0052   0.0114   0.0038  -0.0021  -0.0063  -1.80    7.7
2067 579015.400   53.027760418   13.313203043    82.2453   1   6   0.0130   0.0051   0.0113   0.0038  -0.0020  -0.0062  -1.60    7.7
2067 579015.600   53.027760400   13.313203016    82.2460   1   6   0.0129   0.0051   0.0113   0.0037  -0.0020  -0.0061  -1.40    7.6
2067 579015.800   53.027760403   13.313202999    82.2469   1   6   0.0128   0.0050   0.0112   0.0037  -0.0020  -0.0061  -1.20    7.6
2067 579016.000   53.027760377   13.313203028    82.2465   1   6   0.0127   0.0050   0.0111   0.0037  -0.0020  -0.0060  -1.00    7.5
2067 579016.200   53.027760348   13.313203016    82.2476   1   6   0.0126   0.0050   0.0111   0.0036  -0.0020  -0.0060  -0.80    7.5
2067 579016.400   53.027760431   13.313203008    82.2467   1   6   0.0125   0.0050   0.0111   0.0036  -0.0020  -0.0060  -0.60    7.4
2067 579016.600   53.027760399   13.313203013    82.2473   1   6   0.0125   0.0050   0.0111   0.0036  -0.0020  -0.0060  -0.40    7.4
2067 579016.800   53.027760384   13.313203035    82.2441   1   6   0.0125   0.0049   0.0112   0.0036  -0.0020  -0.0060  -0.20    7.3
2067 579017.000   53.027760382   13.313203057    82.2434   1   6   0.0127   0.0050   0.0113   0.0037  -0.0020  -0.0061   0.00    7.3
2067 579017.200   53.027760351   13.313203068    82.2497   1   6   0.0132   0.0052   0.0114   0.0038  -0.0021  -0.0063  -1.80    7.2
2067 579017.400   53.027760374   13.313203004    82.2477   1   6   0.0130   0.0051   0.0113   0.0038  -0.0020  -0.0062  -1.60    7.2
2067 579017.600   53.027760351   13.313203028    82.2495   1   6   0.0129   0.0051   0.0113   0.0037  -0.0020  -0.0061  -1.40    7.1
2067 579017.800   53.027760352   13.313203017    82.2519   1   6   0.0128   0.0050   0.0112   0.0037  -0.0020  -0.0061  -1.20    7.1
2067 579018.000   53.027760357   13.313203001    82.2508   1   6   0.0127   0.0050   0.0111   0.0037  -0.0020  -0.0060  -1.00    7.0
2067 579018.200   53.027760375   13.313202990    82.2529   1   6   0.0126   0.0050   0.0111   0.0036  -0.0020  -0.0060  -0.80    7.0
2067 579018.400   53.027760382   13.313203043    82.2521   1   6   0.0125   0.0050   0.0111   0.0036  -0.0020  -0.0060  -0.60    7.0
2067 579018.600   53.027760433   13.313203049    82.2523   1   6   0.0125   0.0050   0.0111   0.0036  -0.0020  -0.0060  -0.40    6.9
2067 579018.800   53.027760409   13.313203029    82.2512   1   6   0.0125   0.0049   0.0112   0.0036  -0.0020  -0.0060  -0.20    6.9
2067 579019.000   53.027760416   13.313203019    82.2487   1   6   0.0127   0.0050   0.0113   0.0037  -0.0020  -0.0061   0.00    6.8
2067 579019.200   53.027760482   13.313202987    82.2474   1   6   0.0132   0.0052   0.0114   0.0038  -0.0021  -0.0063  -1.80    6.8
2067 579019.400   53.027760499   13.313202982    82.2470   1   6   0.0130   0.0051   0.0114   0.0038  -0.0020  -0.0062  -1.60    6.8
2067 579019.600   53.027760529   13.313203024    82.2497   1   6   0.0129   0.0051   0.0113   0.0037  -0.0020  -0.0061  -1.40    6.7
2067 579019.800   53.027760512   13.313203049    82.2441   1   6   0.0128   0.0050   0.0112   0.0037  -0.0020  -0.0061  -1.20    6.7
2067 579020.000   53.027760504   13.313203080    82.2452   1   6   0.0127   0.0050   0.0112   0.0037  -0.0020  -0.0060  -1.00    6.6
2067 579020.200   53.027760518   13.313203046    82.2445   1   6   0.0126   0.0050   0.0111   0.0036  -0.0020  -0.0060  -0.80    6.6
2067 579020.400   53.027760519   13.313203055    82.2447   1   6   0.0126   0.0050   0.0111   0.0036  -0.0020  -0.0060  -0.60    6.6
2067 579020.600   53.027760526   13.313203041    82.2452   1   6   0.0125   0.0050   0.0112   0.0036  -0.0020  -0.0060  -0.40    6.5
2067 579020.800   53.027760483   13.313203025    82.2475   1   6   0.0126   0.0050   0.0113   0.0036  -0.0020  -0.0061  -0.20    6.5
2067 579021.000   53.027760455   13.313203029    82.2458   1   6   0.0130   0.0050   0.0116   0.0038  -0.0021  -0.0064   0.00    6.4
2067 579021.200   53.027760413   13.313203071    82.2401   1   6   0.0142   0.0055   0.0120   0.0041  -0.0023  -0.0068  -2.80    6.4
2067 579021.400   53.027760374   13.313203079    82.2409   1   6   0.0140   0.0054   0.0119   0.0040  -0.0022  -0.0067  -2.60    6.4
2067 579021.600   53.027760392   13.313203037    82.2445   1   6   0.0138   0.0054   0.0118   0.0040  -0.0022  -0.0066  -2.40    6.3
2067 579021.800   53.027760376   13.313203032    82.2465   1   6   0.0136   0.0053   0.0117   0.0039  -0.0021  -0.0065  -2.20    6.3
2067 579022.000   53.027760320   13.313203012    82.2481   1   6   0.0134   0.0052   0.0115   0.0038  -0.0021  -0.0064  -2.00    6.3
2067 579022.200   53.027760392   13.313203016    82.2495   1   6   0.0132   0.0052   0.0114   0.0038  -0.0021  -0.0063  -1.80    6.2
2067 579022.400   53.027760477   13.313203021    82.2473   1   6   0.0130   0.0051   0.0114   0.0038  -0.0020  -0.0062  -1.60    6.2
2067 579022.600   53.027760467   13.313203046    82.2501   1   6   0.0129   0.0051   0.0113   0.0037  -0.0020  -0.0061  -1.40    6.2
2067 579022.800   53.027760495   13.313203039    82.2481   1   6   0.0128   0.0051   0.0112   0.0037  -0.0020  -0.0061  -1.20    6.1
2067 579023.000   53.027760510   13.313203017    82.2507   1   6   0.0127   0.0050   0.0112   0.0037  -0.0020  -0.0060  -1.00    6.1
2067 579023.200   53.027760453   13.313203031    82.2514   1   6   0.0126   0.0050   0.0111   0.0036  -0.0020  -0.0060  -0.80    6.1
2067 579023.400   53.027760455   13.313203018    82.2531   1   6   0.0126   0.0050   0.0111   0.0036  -0.0020  -0.0060  -0.60    6.0
2067 579023.600   53.027760461   13.313203028    82.2507   1   6   0.0125   0.0050   0.0111   0.0036  -0.0020  -0.0060  -0.40    6.0
2067 579023.800   53.027760449   13.313203043    82.2518   1   6   0.0125   0.0049   0.0112   0.0036  -0.0020  -0.0060  -0.20    6.0
2067 579024.000   53.027760443   13.313203035    82.2531   1   6   0.0127   0.0050   0.0113   0.0037  -0.0020  -0.0061   0.00    5.9
2067 579024.200   53.027760468   13.313203014    82.2502   1   6   0.0132   0.0052   0.0114   0.0038  -0.0021  -0.0063  -1.80    5.9
2067 579024.400   53.027760527   13.313203003    82.2500   1   6   0.0131   0.0051   0.0114   0.0038  -0.0021  -0.0062  -1.60    5.9
2067 579024.600   53.027760514   13.313203011    82.2489   1   6   0.0129   0.0051   0.0113   0.0037  -0.0020  -0.0061  -1.40    5.8
2067 579024.800   53.027760539   13.313203000    82.2454   1   6   0.0128   0.0051   0.0112   0.0037  -0.0020  -0.0061  -1.20    5.8
2067 579025.000   53.027760533   13.313203040    82.2431   1   6   0.0127   0.0050   0.0112   0.0037  -0.0020  -0.0060  -1.00    5.8
2067 579025.200   53.027760541   13.313203027    82.2420   1   6   0.0126   0.0050   0.0111   0.0036  -0.0020  -0.0060  -0.80    5.7
2067 579025.400   53.027760586   13.313203027    82.2400   1   6   0.0126   0.0050   0.0111   0.0036  -0.0020  -0.0060  -0.60    5.7
2067 579025.600   53.027760560   13.313203015    82.2370   1   6   0.0125   0.0050   0.0111   0.0036  -0.0020  -0.0060  -0.40    5.7
2067 579025.800   53.027760584   13.313203010    82.2378   1   6   0.0125   0.0050   0.0112   0.0036  -0.0020  -0.0060  -0.20    5.6
2067 579026.000   53.027760583   13.313203050    82.2393   1   6   0.0127   0.0050   0.0113   0.0037  -0.0020  -0.0061   0.00    5.6
2067 579026.200   53.027760571   13.313203029    82.2415   1   6   0.0132   0.0052   0.0115   0.0038  -0.0021  -0.0063  -1.80    5.6
2067 579026.400   53.027760548   13.313203008    82.2422   1   6   0.0131   0.0051   0.0114   0.0038  -0.0021  -0.0062  -1.60    5.6
2067 579026.600   53.027760547   13.313203028    82.2413   1   6   0.0129   0.0051   0.0113   0.0037  -0.0020  -0.0062  -1.40    5.5
2067 579026.800   53.027760525   13.313203011    82.2407   1   6   0.0128   0.0051   0.0112   0.0037  -0.0020  -0.0061  -1.20    5.5
2067 579027.000   53.027760526   13.313203049    82.2414   1   6   0.0127   0.0050   0.0112   0.0037  -0.0020  -0.0060  -1.00    5.5
2067 579027.200   53.027760570   13.313203050    82.2398   1   6   0.0126   0.0050   0.0111   0.0036  -0.0020  -0.0060  -0.80    5.4
2067 579027.400   53.027760559   13.313203031    82.2395   1   6   0.0126   0.0050   0.0111   0.0036  -0.0020  -0.0060  -0.60    5.4
2067 579027.600   53.027760501   13.313203069    82.2441   1   6   0.0125   0.0050   0.0111   0.0036  -0.0020  -0.0060  -0.40    5.4
2067 579027.800   53.027760535   13.313203076    82.2399   1   6   0.0125   0.0050   0.0112   0.0036  -0.0020  -0.0060  -0.20    5.4
2067 579028.000   53.027760602   13.313203044    82.2389   1   6   0.0127   0.0050   0.0113   0.0037  -0.0020  -0.0061   0.00    5.3
2067 579028.200   53.027760665   13.313203087    82.2320   1   6   0.0132   0.0052   0.0115   0.0038  -0.0021  -0.0063  -1.80    5.3
2067 579028.400   53.027760675   13.313203066    82.2314   1   6   0.0131   0.0051   0.0114   0.0038  -0.0021  -0.0062  -1.60    5.3
2067 579028.600   53.027760678   13.313203105    82.2293   1   6   0.0129   0.0051   0.0113   0.0037  -0.0020  -0.0062  -1.40    5.2
2067 579028.800   53.027760674   13.313203089    82.2276   1   6   0.0128   0.0051   0.0112   0.0037  -0.0020  -0.0061  -1.20    5.2
2067 579029.000   53.027760698   13.313203091    82.2285   1   6   0.0127   0.0050   0.0112   0.0037  -0.0020  -0.0061  -1.00    5.2
2067 579029.200   53.027760696   13.313203070    82.2233   1   6   0.0126   0.0050   0.0111   0.0036  -0.0020  -0.0060  -0.80    5.2
2067 579029.400   53.027760679   13.313203104    82.2210   1   6   0.0126   0.0050   0.0111   0.0036  -0.0020  -0.0060  -0.60    5.1
2067 579029.600   53.027760694   13.313203131    82.2214   1   6   0.0125   0.0050   0.0111   0.0036  -0.0020  -0.0060  -0.40    5.1
2067 579029.800   53.027760713   13.313203139    82.2168   1   6   0.0125   0.0050   0.0112   0.0036  -0.0020  -0.0061  -0.20    5.1
2067 579030.000   53.027760669   13.313203102    82.2176   1   6   0.0127   0.0050   0.0113   0.0037  -0.0020  -0.0061   0.00    5.0
2067 579030.200   53.027760633   13.313203018    82.2192   1   6   0.0132   0.0052   0.0115   0.0038  -0.0021  -0.0063  -1.80    5.0
2067 579030.400   53.027760621   13.313203036    82.2170   1   6   0.0131   0.0051   0.0114   0.0038  -0.0021  -0.0062  -1.60    5.0
