% program   : rnx2rtkp ver.demo5 b32
% inp file  : 2019-08-24-16-48-58.obs
% inp file  : ../base-rec/2019-08-23-11-38-35.obs
% inp file  : 2019-08-24-16-48-58.nav
% obs start : 2019/08/24 16:49:01.4 GPST (week2067 578941.4s)
% obs end   : 2019/08/24 17:37:07.8 GPST (week2067 581827.8s)
% ref pos   : 53.032595189   13.307541008    90.1090
%
% (lat/lon/height=WGS84/ellipsoidal,Q=1:fix,2:float,3:sbas,4:dgps,5:single,6:ppp,ns=# of satellites)
%  GPST          latitude(deg) longitude(deg)  height(m)   Q  ns   sdn(m)   sde(m)   sdu(m)  sdne(m)  sdeu(m)  sdun(m) age(s)  ratio
2067 578941.400   53.027682344   13.313114159    81.9680   2   6   4.4090   1.5655   5.0051   1.2874  -1.0012  -2.7090   1.40    0.0
2067 578941.600   53.027683055   13.313110194    81.8126   2   6   3.2800   1.3291   3.6965   0.9359  -0.7223  -1.9490   1.60    0.0
2067 578941.800   53.027681391   13.313104434    80.7917   2   6   3.0715   1.3192   3.4070   0.8620  -0.6354  -1.6826   1.80    0.0
2067 578942.000   53.027681754   13.313102531    79.2625   2   6   3.0900   1.2787   3.4161   0.8729  -0.6322  -1.6616   0.00    0.0
2067 578942.200   53.027680612   13.313093018    77.3077   2   6   3.1165   1.2512   3.4623   0.8867  -0.6511  -1.7222   0.20    0.0
2067 578942.400   53.027680650   13.313097741    77.6847   2   6   2.0443   0.8332   2.3009   0.5842  -0.4308  -1.1717   0.40    0.0
2067 578942.600   53.027682214   13.313104190    77.7473   2   6   1.7197   0.6098   1.9717   0.5047  -0.3863  -1.0641   0.60    0.0
2067 578942.800   53.027682457   13.313105978    77.1128   2   6   1.6134   0.5733   1.8540   0.4739  -0.3604  -0.9973   0.80    0.0
2067 578943.000   53.027682587   13.313109150    76.5848   2   6   1.5271   0.5436   1.7584   0.4490  -0.3394  -0.9432   1.00    0.0
2067 578943.200   53.027682712   13.313112701    76.2164   2   6   1.4537   0.5182   1.6766   0.4277  -0.3218  -0.8973   1.20    0.0
2067 578943.400   53.027682653   13.313113460    76.2261   2   6   1.3901   0.4962   1.6053   0.4092  -0.3065  -0.8575   1.40    0.0
2067 578943.600   53.027682234   13.313113955    76.1596   2   6   1.3342   0.4767   1.5425   0.3929  -0.2933  -0.8225   1.60    0.0
2067 578943.800   53.027681811   13.313112779    76.2608   2   6   1.2845   0.4594   1.4864   0.3784  -0.2815  -0.7915   1.80    0.0
2067 578944.000   53.027680826   13.313110810    76.4263   2   6   1.2400   0.4438   1.4360   0.3655  -0.2711  -0.7638   0.00    0.0
2067 578944.200   53.027680062   13.313109825    76.3475   2   6   1.1998   0.4297   1.3904   0.3537  -0.2617  -0.7387   0.20    0.0
2067 578944.400   53.027679513   13.313109338    76.2588   2   6   1.1632   0.4169   1.3489   0.3430  -0.2532  -0.7159   0.40    0.0
2067 578944.600   53.027679035   13.313108884    76.2673   2   6   1.1298   0.4052   1.3108   0.3333  -0.2454  -0.6951   0.60    0.0
2067 578944.800   53.027678640   13.313108719    76.2564   2   6   1.0991   0.3943   1.2758   0.3243  -0.2383  -0.6760   0.80    0.0
2067 578945.000   53.027678376   13.313108579    76.4200   2   6   1.0708   0.3844   1.2434   0.3160  -0.2318  -0.6584   1.00    0.0
2067 578945.200   53.027678271   13.313108382    76.5271   2   6   1.0445   0.3751   1.2133   0.3083  -0.2258  -0.6420   1.20    0.0
2067 578945.400   53.027678310   13.313108728    76.6701   2   6   1.0201   0.3665   1.1853   0.3011  -0.2202  -0.6268   1.40    0.0
2067 578945.600   53.027678208   13.313108831    76.6598   2   6   0.9973   0.3584   1.1591   0.2944  -0.2149  -0.6126   1.60    0.0
2067 578945.800   53.027677988   13.313108513    76.5384   2   6   0.9760   0.3509   1.1345   0.2881  -0.2100  -0.5993   1.80    0.0
2067 578946.000   53.027678274   13.313108269    76.3877   2   6   0.9559   0.3438   1.1114   0.2822  -0.2054  -0.5868   0.00    0.0
2067 578946.200   53.027678542   13.313107470    76.4116   2   6   0.9370   0.3371   1.0896   0.2767  -0.2011  -0.5750   0.20    0.0
2067 578946.400   53.027678879   13.313106714    76.4659   2   6   0.9191   0.3308   1.0690   0.2714  -0.1970  -0.5638   0.40    0.0
2067 578946.600   53.027679227   13.313106019    76.5231   2   6   0.9023   0.3248   1.0495   0.2664  -0.1932  -0.5533   0.60    0.0
2067 578946.800   53.027679601   13.313105844    76.6264   2   6   0.8863   0.3192   1.0310   0.2617  -0.1895  -0.5433   0.80    0.0
2067 578947.000   53.027679945   13.313105899    76.7016   2   6   0.8711   0.3138   1.0134   0.2573  -0.1861  -0.5338   1.00    0.0
2067 578947.200   53.027680240   13.313106196    76.7646   2   6   0.8567   0.3087   0.9967   0.2530  -0.1828  -0.5248   1.20    0.0
2067 578947.400   53.027680433   13.313106152    76.8554   2   6   0.8429   0.3038   0.9808   0.2489  -0.1797  -0.5162   1.40    0.0
2067 578947.600   53.027680561   13.313106283    76.8728   2   6   0.8298   0.2992   0.9655   0.2451  -0.1767  -0.5080   1.60    0.0
2067 578947.800   53.027680595   13.313106231    76.8524   2   6   0.8173   0.2948   0.9510   0.2414  -0.1738  -0.5002   1.80    0.0
2067 578948.000   53.027680803   13.313105930    76.7608   2   6   0.8052   0.2905   0.9370   0.2378  -0.1711  -0.4926   0.00    0.0
2067 578948.200   53.027680864   13.313105966    76.6075   2   6   0.7937   0.2864   0.9235   0.2344  -0.1684  -0.4853   0.20    0.0
2067 578948.400   53.027680919   13.313105512    76.5111   2   6   0.7826   0.2825   0.9107   0.2311  -0.1659  -0.4784   0.40    0.0
2067 578948.600   53.027681093   13.313105583    76.4081   2   6   0.7720   0.2788   0.8983   0.2280  -0.1635  -0.4717   0.60    0.0
2067 578948.800   53.027681123   13.313105644    76.4495   2   6   0.7618   0.2752   0.8864   0.2250  -0.1611  -0.4652   0.80    0.0
2067 578949.000   53.027681140   13.313105589    76.4995   2   6   0.7519   0.2717   0.8749   0.2221  -0.1589  -0.4590   1.00    0.0
2067 578949.200   53.027681013   13.313105734    76.5151   2   6   0.7425   0.2684   0.8638   0.2193  -0.1567  -0.4530   1.20    0.0
2067 578949.400   53.027680941   13.313105580    76.5971   2   6   0.7333   0.2652   0.8531   0.2166  -0.1546  -0.4473   1.40    0.0
2067 578949.600   53.027681013   13.313105592    76.7220   2   6   0.7245   0.2621   0.8428   0.2140  -0.1526  -0.4417   1.60    0.0
2067 578949.800   53.027681045   13.313105584    76.8238   2   6   0.7160   0.2591   0.8329   0.2115  -0.1507  -0.4363   1.80    0.0
2067 578950.000   53.027680980   13.313105498    76.9768   2   6   0.7078   0.2562   0.8232   0.2090  -0.1488  -0.4311   2.00    0.0
2067 578950.200   53.027681002   13.313105356    77.1160   2   6   0.6999   0.2534   0.8139   0.2067  -0.1470  -0.4261   2.20    0.0
2067 578950.400   53.027681064   13.313105358    77.2919   2   6   0.6922   0.2506   0.8049   0.2044  -0.1452  -0.4213   2.40    0.0
2067 578950.600   53.027681153   13.313105544    77.4646   2   6   0.6847   0.2480   0.7962   0.2022  -0.1435  -0.4166   2.60    0.0
2067 578950.800   53.027680999   13.313105526    77.5940   2   6   0.6775   0.2455   0.7877   0.2001  -0.1419  -0.4120   2.80    0.0
2067 578951.000   53.027681176   13.313105962    77.6876   2   6   0.6704   0.2430   0.7794   0.1979  -0.1402  -0.4074   0.00    0.0
2067 578951.200   53.027681394   13.313106384    77.7894   2   6   0.6635   0.2406   0.7712   0.1959  -0.1385  -0.4030   0.20    0.0
2067 578951.400   53.027681536   13.313107027    77.8642   2   6   0.6568   0.2383   0.7634   0.1939  -0.1370  -0.3987   0.40    0.0
2067 578951.600   53.027681748   13.313107530    77.9564   2   6   0.6503   0.2360   0.7557   0.1920  -0.1354  -0.3944   0.60    0.0
2067 578951.800   53.027681921   13.313108240    78.0782   2   6   0.6439   0.2338   0.7482   0.1901  -0.1340  -0.3904   0.80    0.0
2067 578952.000   53.027682204   13.313108678    78.1408   2   6   0.6378   0.2316   0.7410   0.1883  -0.1325  -0.3864   1.00    0.0
2067 578952.200   53.027682350   13.313109230    78.2221   2   6   0.6318   0.2296   0.7339   0.1865  -0.1311  -0.3825   1.20    0.0
2067 578952.400   53.027682593   13.313109646    78.3480   2   6   0.6260   0.2275   0.7270   0.1847  -0.1298  -0.3788   1.40    0.0
2067 578952.600   53.027682636   13.313110052    78.4752   2   6   0.6203   0.2256   0.7203   0.1831  -0.1284  -0.3751   1.60    0.0
2067 578952.800   53.027682732   13.313110419    78.5525   2   6   0.6148   0.2236   0.7138   0.1814  -0.1271  -0.3715   1.80    0.0
2067 578953.000   53.027682681   13.313110784    78.6565   2   6   0.6093   0.2217   0.7073   0.1798  -0.1258  -0.3680   0.00    0.0
2067 578953.200   53.027682730   13.313110963    78.7561   2   6   0.6040   0.2199   0.7010   0.1782  -0.1246  -0.3645   0.20    0.0
2067 578953.400   53.027682945   13.313111221    78.8968   2   6   0.5988   0.2181   0.6949   0.1767  -0.1233  -0.3611   0.40    0.0
2067 578953.600   53.027683032   13.313111487    79.0483   2   6   0.5937   0.2164   0.6889   0.1752  -0.1221  -0.3577   0.60    0.0
2067 578953.800   53.027683053   13.313111598    79.1691   2   6   0.5888   0.2147   0.6830   0.1737  -0.1209  -0.3545   0.80    0.0
2067 578954.000   53.027683182   13.313111936    79.2731   2   6   0.5839   0.2130   0.6773   0.1722  -0.1198  -0.3513   1.00    0.0
2067 578954.200   53.027683410   13.313112441    79.4234   2   6   0.5792   0.2114   0.6717   0.1708  -0.1187  -0.3482   1.20    0.0
2067 578954.400   53.027683584   13.313112605    79.5962   2   6   0.5746   0.2098   0.6662   0.1695  -0.1176  -0.3452   1.40    0.0
2067 578954.600   53.027683662   13.313112787    79.7481   2   6   0.5701   0.2082   0.6608   0.1681  -0.1165  -0.3422   1.60    0.0
2067 578954.800   53.027683724   13.313112994    79.8871   2   6   0.5657   0.2067   0.6556   0.1668  -0.1154  -0.3394   1.80    0.0
2067 578955.000   53.027683915   13.313113327    80.0001   2   6   0.5613   0.2052   0.6504   0.1655  -0.1144  -0.3364   0.00    0.0
2067 578955.200   53.027683932   13.313113666    80.0968   2   6   0.5570   0.2038   0.6453   0.1642  -0.1133  -0.3336   0.20    0.0
2067 578955.400   53.027684134   13.313113914    80.2018   2   6   0.5528   0.2023   0.6403   0.1630  -0.1123  -0.3308   0.40    0.0
2067 578955.600   53.027684356   13.313114230    80.2753   2   6   0.5487   0.2009   0.6354   0.1617  -0.1113  -0.3280   0.60    1.1
2067 578955.800   53.027684544   13.313114571    80.3138   2   6   0.5447   0.1996   0.6306   0.1605  -0.1103  -0.3254   0.80    1.1
2067 578956.000   53.027684736   13.313114857    80.3508   2   6   0.5407   0.1982   0.6259   0.1594  -0.1094  -0.3227   1.00    1.0
2067 578956.200   53.027684945   13.313115182    80.4245   2   6   0.5368   0.1969   0.6213   0.1582  -0.1084  -0.3201   1.20    1.0
2067 578956.400   53.027684998   13.313115272    80.4670   2   6   0.5331   0.1956   0.6168   0.1571  -0.1075  -0.3176   1.40    1.0
2067 578956.600   53.027685140   13.313115405    80.5040   2   6   0.5294   0.1943   0.6123   0.1560  -0.1066  -0.3152   1.60    1.1
2067 578956.800   53.027685220   13.313115484    80.5421   2   6   0.5257   0.1931   0.6080   0.1549  -0.1057  -0.3127   1.80    1.1
2067 578957.000   53.027685142   13.313115574    80.5977   2   6   0.5221   0.1919   0.6036   0.1538  -0.1048  -0.3103   0.00    1.1
2067 578957.200   53.027685189   13.313115780    80.6358   2   6   0.5185   0.1907   0.5994   0.1527  -0.1039  -0.3078   0.20    1.2
2067 578957.400   53.027685151   13.313115905    80.7000   2   6   0.5150   0.1895   0.5952   0.1517  -0.1030  -0.3055   0.40    1.2
2067 578957.600   53.027685102   13.313115916    80.7297   2   6   0.5115   0.1884   0.5911   0.1506  -0.1022  -0.3031   0.60    1.2
2067 578957.800   53.027685126   13.313115995    80.7604   2   6   0.5082   0.1872   0.5870   0.1496  -0.1013  -0.3008   0.80    1.2
2067 578958.000   53.027685098   13.313116140    80.8094   2   6   0.5049   0.1861   0.5830   0.1486  -0.1005  -0.2986   1.00    1.2
2067 578958.200   53.027685132   13.313116242    80.8318   2   6   0.5016   0.1850   0.5791   0.1477  -0.0997  -0.2964   1.20    1.3
2067 578958.400   53.027685045   13.313116168    80.8476   2   6   0.4984   0.1839   0.5753   0.1467  -0.0989  -0.2942   1.40    1.2
2067 578958.600   53.027685095   13.313116173    80.8489   2   6   0.4953   0.1829   0.5715   0.1458  -0.0981  -0.2921   1.60    1.2
2067 578958.800   53.027685072   13.313116157    80.8922   2   6   0.4922   0.1819   0.5678   0.1449  -0.0974  -0.2900   1.80    1.2
2067 578959.000   53.027685201   13.313116121    80.9265   2   6   0.4891   0.1808   0.5641   0.1439  -0.0966  -0.2879   0.00    1.2
2067 578959.200   53.027685439   13.313116163    80.9529   2   6   0.4861   0.1798   0.5605   0.1430  -0.0958  -0.2858   0.20    1.3
2067 578959.400   53.027685870   13.313116298    80.9655   2   6   0.4831   0.1788   0.5569   0.1421  -0.0950  -0.2837   0.40    1.3
2067 578959.600   53.027686210   13.313116458    81.0044   2   6   0.4801   0.1779   0.5533   0.1412  -0.0943  -0.2816   0.60    1.3
2067 578959.800   53.027686299   13.313116537    81.0559   2   6   0.4772   0.1769   0.5498   0.1404  -0.0935  -0.2796   0.80    1.3
2067 578960.000   53.027686627   13.313116606    81.0767   2   6   0.4744   0.1760   0.5464   0.1395  -0.0928  -0.2777   1.00    1.4
2067 578960.200   53.027686885   13.313116751    81.1060   2   6   0.4716   0.1750   0.5430   0.1387  -0.0921  -0.2757   1.20    1.4
2067 578960.400   53.027687079   13.313116900    81.1453   2   6   0.4688   0.1741   0.5397   0.1379  -0.0914  -0.2738   1.40    1.5
2067 578960.600   53.027687480   13.313117100    81.1912   2   6   0.4661   0.1732   0.5365   0.1371  -0.0907  -0.2720   1.60    1.5
2067 578960.800   53.027687858   13.313117347    81.2384   2   6   0.4635   0.1723   0.5333   0.1363  -0.0900  -0.2702   1.80    1.6
2067 578961.000   53.027688149   13.313117569    81.2782   2   6   0.4608   0.1715   0.5300   0.1354  -0.0893  -0.2683   0.00    1.7
2067 578961.200   53.027688413   13.313117836    81.3248   2   6   0.4581   0.1706   0.5268   0.1346  -0.0886  -0.2664   0.20    1.7
2067 578961.400   53.027688636   13.313118090    81.3503   2   6   0.4555   0.1697   0.5237   0.1339  -0.0879  -0.2646   0.40    1.7
2067 578961.600   53.027688976   13.313118352    81.3827   2   6   0.4529   0.1689   0.5206   0.1331  -0.0872  -0.2627   0.60    1.7
2067 578961.800   53.027689258   13.313118571    81.3985   2   6   0.4504   0.1681   0.5175   0.1323  -0.0866  -0.2610   0.80    1.8
2067 578962.000   53.027689322   13.313118823    81.4576   2   6   0.4479   0.1673   0.5145   0.1316  -0.0859  -0.2592   1.00    1.7
2067 578962.200   53.027689398   13.313119060    81.5134   2   6   0.4455   0.1665   0.5115   0.1309  -0.0853  -0.2575   1.20    1.6
2067 578962.400   53.027689596   13.313119283    81.5432   2   6   0.4431   0.1657   0.5086   0.1301  -0.0847  -0.2558   1.40    1.6
2067 578962.600   53.027689804   13.313119473    81.5670   2   6   0.4407   0.1649   0.5057   0.1294  -0.0841  -0.2541   1.60    1.6
2067 578962.800   53.027689933   13.313119659    81.5976   2   6   0.4384   0.1641   0.5029   0.1287  -0.0835  -0.2525   1.80    1.6
2067 578963.000   53.027690313   13.313119797    81.6071   2   6   0.4360   0.1634   0.5001   0.1280  -0.0828  -0.2508   0.00    1.6
2067 578963.200   53.027690619   13.313119961    81.6341   2   6   0.4337   0.1626   0.4972   0.1273  -0.0822  -0.2491   0.20    1.5
2067 578963.400   53.027690948   13.313120063    81.6417   2   6   0.4313   0.1619   0.4944   0.1266  -0.0815  -0.2475   0.40    1.4
2067 578963.600   53.027691232   13.313120169    81.6400   2   6   0.4291   0.1612   0.4917   0.1259  -0.0809  -0.2458   0.60    1.4
2067 578963.800   53.027691631   13.313120312    81.6534   2   6   0.4268   0.1605   0.4889   0.1253  -0.0803  -0.2442   0.80    1.3
2067 578964.000   53.027691993   13.313120470    81.6614   2   6   0.4246   0.1597   0.4863   0.1246  -0.0797  -0.2427   1.00    1.3
2067 578964.200   53.027692302   13.313120603    81.6688   2   6   0.4224   0.1590   0.4836   0.1239  -0.0792  -0.2411   1.20    1.2
2067 578964.400   53.027692405   13.313120747    81.6811   2   6   0.4203   0.1584   0.4810   0.1233  -0.0786  -0.2396   1.40    1.2
2067 578964.600   53.027692420   13.313120853    81.6871   2   6   0.4182   0.1577   0.4785   0.1227  -0.0780  -0.2381   1.60    1.2
2067 578964.800   53.027692636   13.313120956    81.7074   2   6   0.4162   0.1570   0.4759   0.1221  -0.0775  -0.2366   1.80    1.1
2067 578965.000   53.027692568   13.313120975    81.7283   2   6   0.4140   0.1563   0.4734   0.1214  -0.0769  -0.2351   0.00    1.0
2067 578965.200   53.027692709   13.313121038    81.7483   2   6   0.4119   0.1557   0.4708   0.1208  -0.0763  -0.2336   0.20    1.1
2067 578965.400   53.027692863   13.313121152    81.7933   2   6   0.4099   0.1550   0.4683   0.1201  -0.0757  -0.2320   0.40    1.2
2067 578965.600   53.027693107   13.313121222    81.8148   2   6   0.4078   0.1544   0.4658   0.1195  -0.0752  -0.2306   0.60    1.3
2067 578965.800   53.027693209   13.313121409    81.8281   2   6   0.4058   0.1538   0.4634   0.1189  -0.0746  -0.2291   0.80    1.3
2067 578966.000   53.027693090   13.313121569    81.8714   2   6   0.4038   0.1531   0.4610   0.1183  -0.0741  -0.2277   1.00    1.4
2067 578966.200   53.027693096   13.313121823    81.9077   2   6   0.4019   0.1525   0.4586   0.1178  -0.0735  -0.2262   1.20    1.5
2067 578966.400   53.027693335   13.313122078    81.9223   2   6   0.4000   0.1519   0.4563   0.1172  -0.0730  -0.2249   1.40    1.5
2067 578966.600   53.027693357   13.313122237    81.9407   2   6   0.3981   0.1513   0.4540   0.1166  -0.0725  -0.2235   1.60    1.6
2067 578966.800   53.027693502   13.313122367    81.9593   2   6   0.3962   0.1507   0.4517   0.1161  -0.0720  -0.2222   1.80    1.6
2067 578967.000   53.027693554   13.313122576    81.9426   2   6   0.3943   0.1501   0.4494   0.1155  -0.0714  -0.2207   0.00    1.6
2067 578967.200   53.027693778   13.313122807    81.9482   2   6   0.3924   0.1495   0.4471   0.1149  -0.0709  -0.2193   0.20    1.6
2067 578967.400   53.027693732   13.313123007    81.9763   2   6   0.3905   0.1489   0.4448   0.1143  -0.0704  -0.2180   0.40    1.8
2067 578967.600   53.027693708   13.313123148    81.9915   2   6   0.3887   0.1484   0.4425   0.1138  -0.0698  -0.2166   0.60    1.9
2067 578967.800   53.027693586   13.313123321    82.0011   2   6   0.3869   0.1478   0.4403   0.1132  -0.0693  -0.2152   0.80    2.0
2067 578968.000   53.027693515   13.313123550    82.0017   2   6   0.3851   0.1473   0.4381   0.1127  -0.0688  -0.2139   1.00    2.1
2067 578968.200   53.027693432   13.313123811    82.0019   2   6   0.3833   0.1467   0.4360   0.1122  -0.0683  -0.2126   1.20    2.1
2067 578968.400   53.027693527   13.313124019    82.0085   2   6   0.3816   0.1462   0.4338   0.1116  -0.0679  -0.2114   1.40    2.2
2067 578968.600   53.027693457   13.313124145    82.0047   2   6   0.3799   0.1456   0.4317   0.1111  -0.0674  -0.2101   1.60    2.2
2067 578968.800   53.027693644   13.313124350    81.9880   2   6   0.3782   0.1451   0.4297   0.1106  -0.0669  -0.2089   1.80    2.1
2067 578969.000   53.027693572   13.313124512    81.9845   2   6   0.3764   0.1446   0.4276   0.1101  -0.0664  -0.2076   0.00    2.2
2067 578969.200   53.027693558   13.313124804    81.9659   2   6   0.3747   0.1440   0.4255   0.1096  -0.0659  -0.2063   0.20    2.1
2067 578969.400   53.027693508   13.313125040    81.9500   2   6   0.3730   0.1435   0.4234   0.1091  -0.0654  -0.2050   0.40    2.1
2067 578969.600   53.027693396   13.313125237    81.9645   2   6   0.3713   0.1430   0.4213   0.1086  -0.0649  -0.2037   0.60    2.2
2067 578969.800   53.027693412   13.313125485    81.9564   2   6   0.3697   0.1425   0.4193   0.1081  -0.0644  -0.2025   0.80    2.2
2067 578970.000   53.027693288   13.313125686    81.9546   2   6   0.3680   0.1420   0.4173   0.1076  -0.0639  -0.2013   1.00    2.3
2067 578970.200   53.027693334   13.313125875    81.9556   2   6   0.3664   0.1415   0.4153   0.1071  -0.0635  -0.2001   1.20    2.3
2067 578970.400   53.027693407   13.313125991    81.9758   2   6   0.3648   0.1410   0.4134   0.1066  -0.0630  -0.1989   1.40    2.4
2067 578970.600   53.027693491   13.313126051    81.9678   2   6   0.3633   0.1405   0.4115   0.1061  -0.0626  -0.1977   1.60    2.4
2067 578970.800   53.027693425   13.313126228    81.9738   2   6   0.3618   0.1401   0.4096   0.1057  -0.0622  -0.1966   1.80    2.3
2067 578971.000   53.027693537   13.313126511    81.9685   2   6   0.3601   0.1396   0.4076   0.1052  -0.0616  -0.1954   0.00    2.3
2067 578971.200   53.027693508   13.313126793    81.9616   2   6   0.3586   0.1391   0.4057   0.1047  -0.0612  -0.1942   0.20    2.2
2067 578971.400   53.027693577   13.313127107    81.9493   2   6   0.3570   0.1386   0.4038   0.1042  -0.0607  -0.1930   0.40    2.1
2067 578971.600   53.027693586   13.313127285    81.9338   2   6   0.3554   0.1382   0.4019   0.1038  -0.0602  -0.1918   0.60    2.0
2067 578971.800   53.027693575   13.313127561    81.9097   2   6   0.3539   0.1377   0.4000   0.1033  -0.0598  -0.1907   0.80    1.9
2067 578972.000   53.027693588   13.313127805    81.9120   2   6   0.3524   0.1373   0.3982   0.1029  -0.0593  -0.1895   1.00    1.8
2067 578972.200   53.027693671   13.313128191    81.8742   2   6   0.3509   0.1368   0.3964   0.1024  -0.0589  -0.1884   1.20    1.7
2067 578972.400   53.027693818   13.313128441    81.8241   2   6   0.3495   0.1364   0.3946   0.1020  -0.0585  -0.1873   1.40    1.5
2067 578972.600   53.027693619   13.313128939    81.7756   2   6   0.3481   0.1359   0.3928   0.1016  -0.0581  -0.1863   1.60    1.3
2067 578972.800   53.027693813   13.313129164    81.7586   2   6   0.3467   0.1355   0.3911   0.1011  -0.0577  -0.1852   1.80    1.3
2067 578973.000   53.027693558   13.313129499    81.7126   2   6   0.3453   0.1351   0.3894   0.1007  -0.0573  -0.1842   2.00    1.2
2067 578973.200   53.027693331   13.313129918    81.6437   2   6   0.3439   0.1346   0.3877   0.1003  -0.0569  -0.1832   2.20    1.0
2067 578973.400   53.027693026   13.313130087    81.6276   2   6   0.3426   0.1342   0.3861   0.0999  -0.0565  -0.1823   2.40    1.1
2067 578973.600   53.027692941   13.313130395    81.6229   2   6   0.3413   0.1338   0.3844   0.0995  -0.0562  -0.1813   2.60    1.2
2067 578973.800   53.027692842   13.313130592    81.6130   2   6   0.3401   0.1334   0.3829   0.0992  -0.0558  -0.1804   2.80    1.2
2067 578974.000   53.027692602   13.313130765    81.5783   2   6   0.3386   0.1330   0.3811   0.0987  -0.0553  -0.1793   0.00    1.4
2067 578974.200   53.027692337   13.313130969    81.5404   2   6   0.3371   0.1325   0.3794   0.0983  -0.0548  -0.1782   0.20    1.6
2067 578974.400   53.027692273   13.313131213    81.4751   2   6   0.3357   0.1321   0.3777   0.0978  -0.0544  -0.1771   0.40    1.7
2067 578974.600   53.027692202   13.313131454    81.4172   2   6   0.3343   0.1317   0.3760   0.0974  -0.0539  -0.1760   0.60    1.9
2067 578974.800   53.027692063   13.313131650    81.3823   2   6   0.3330   0.1313   0.3743   0.0970  -0.0535  -0.1750   0.80    1.9
2067 578975.000   53.027692145   13.313131928    81.3417   2   6   0.3316   0.1309   0.3727   0.0966  -0.0531  -0.1740   1.00    1.9
2067 578975.200   53.027692145   13.313132136    81.3180   2   6   0.3303   0.1305   0.3711   0.0962  -0.0527  -0.1729   1.20    1.9
2067 578975.400   53.027692118   13.313132444    81.2984   2   6   0.3290   0.1302   0.3695   0.0958  -0.0523  -0.1720   1.40    1.9
2067 578975.600   53.027692071   13.313132620    81.2691   2   6   0.3277   0.1298   0.3679   0.0954  -0.0519  -0.1710   1.60    1.9
2067 578975.800   53.027692136   13.313132719    81.2377   2   6   0.3265   0.1294   0.3663   0.0951  -0.0516  -0.1700   1.80    1.8
2067 578976.000   53.027692078   13.313132747    81.1912   2   6   0.3251   0.1290   0.3647   0.0947  -0.0511  -0.1690   0.00    1.9
2067 578976.200   53.027691920   13.313132861    81.1426   2   6   0.3238   0.1286   0.3631   0.0943  -0.0507  -0.1680   0.20    2.0
2067 578976.400   53.027691706   13.313133067    81.1246   2   6   0.3225   0.1283   0.3615   0.0939  -0.0502  -0.1669   0.40    2.1
2067 578976.600   53.027691489   13.313133260    81.0999   2   6   0.3212   0.1279   0.3599   0.0935  -0.0498  -0.1659   0.60    2.2
2067 578976.800   53.027691357   13.313133335    81.0536   2   6   0.3199   0.1275   0.3584   0.0931  -0.0494  -0.1649   0.80    2.2
2067 578977.000   53.027691261   13.313133402    81.0339   2   6   0.3187   0.1272   0.3568   0.0927  -0.0490  -0.1640   1.00    2.3
2067 578977.200   53.027691158   13.313133511    81.0159   2   6   0.3175   0.1268   0.3553   0.0924  -0.0487  -0.1630   1.20    2.3
2067 578977.400   53.027691089   13.313133592    81.0124   2   5   0.3163   0.1265   0.3539   0.0921  -0.0482  -0.1620   1.40    1.0
2067 578977.600   53.027691182   13.313133708    81.0140   2   6   0.3152   0.1261   0.3524   0.0918  -0.0476  -0.1610   1.60    1.0
2067 578977.800   53.027691145   13.313133809    81.0202   2   5   0.3142   0.1258   0.3510   0.0915  -0.0472  -0.1600   1.80    1.0
2067 578978.000   53.027691153   13.313133910    81.0010   2   6   0.3131   0.1254   0.3495   0.0912  -0.0466  -0.1588   0.00    1.0
2067 578978.200   53.027691157   13.313134076    80.9661   2   6   0.3120   0.1251   0.3481   0.0909  -0.0462  -0.1576   0.20    1.0
2067 578978.400   53.027691111   13.313134181    80.9203   2   6   0.3110   0.1247   0.3467   0.0905  -0.0457  -0.1564   0.40    1.0
2067 578978.600   53.027691127   13.313134281    80.8880   2   6   0.3099   0.1244   0.3453   0.0902  -0.0453  -0.1552   0.60    1.0
2067 578978.800   53.027691050   13.313134332    80.8448   2   6   0.3089   0.1240   0.3440   0.0898  -0.0449  -0.1540   0.80    1.0
2067 578979.000   53.027691016   13.313134367    80.7961   2   6   0.3079   0.1237   0.3427   0.0895  -0.0444  -0.1528   1.00    1.7
2067 578979.200   53.027690903   13.313134454    80.7617   2   6   0.3069   0.1234   0.3414   0.0892  -0.0440  -0.1517   1.20    1.7
2067 578979.400   53.027690806   13.313134489    80.7248   2   6   0.3059   0.1230   0.3401   0.0889  -0.0436  -0.1505   1.40    1.6
2067 578979.600   53.027690737   13.313134502    80.7017   2   6   0.3049   0.1227   0.3388   0.0886  -0.0432  -0.1494   1.60    1.6
2067 578979.800   53.027690819   13.313134579    80.6750   2   6   0.3039   0.1224   0.3376   0.0883  -0.0428  -0.1483   1.80    1.6
2067 578980.000   53.027690719   13.313134558    80.6652   2   6   0.3029   0.1221   0.3363   0.0879  -0.0423  -0.1471   0.00    1.5
2067 578980.200   53.027690619   13.313134694    80.6525   2   6   0.3018   0.1217   0.3351   0.0876  -0.0419  -0.1459   0.20    1.5
2067 578980.400   53.027690545   13.313134821    80.6254   2   6   0.3008   0.1214   0.3338   0.0873  -0.0414  -0.1447   0.40    1.4
2067 578980.600   53.027690585   13.313134950    80.6098   2   6   0.2998   0.1211   0.3326   0.0869  -0.0410  -0.1435   0.60    1.4
2067 578980.800   53.027690589   13.313135103    80.5848   2   6   0.2989   0.1208   0.3314   0.0866  -0.0406  -0.1423   0.80    1.4
2067 578981.000   53.027690568   13.313135281    80.5654   2   6   0.2979   0.1205   0.3302   0.0863  -0.0401  -0.1412   1.00    1.3
2067 578981.200   53.027690514   13.313135370    80.5428   2   6   0.2970   0.1202   0.3290   0.0860  -0.0397  -0.1400   1.20    1.3
2067 578981.400   53.027690524   13.313135581    80.5039   2   6   0.2961   0.1199   0.3278   0.0857  -0.0393  -0.1389   1.40    1.2
2067 578981.600   53.027690616   13.313135715    80.4480   2   6   0.2951   0.1196   0.3266   0.0854  -0.0390  -0.1379   1.60    1.2
2067 578981.800   53.027690585   13.313135847    80.3998   2   6   0.2943   0.1193   0.3255   0.0851  -0.0386  -0.1368   1.80    1.1
2067 578982.000   53.027690449   13.313135939    80.3670   2   6   0.2933   0.1190   0.3243   0.0848  -0.0381  -0.1356   0.00    1.1
2067 578982.200   53.027690215   13.313136064    80.3393   2   6   0.2923   0.1187   0.3231   0.0845  -0.0377  -0.1345   0.20    1.1
2067 578982.400   53.027690065   13.313136202    80.2910   2   6   0.2914   0.1184   0.3219   0.0842  -0.0372  -0.1333   0.40    1.0
2067 578982.600   53.027689882   13.313136410    80.2357   2   6   0.2905   0.1181   0.3207   0.0839  -0.0368  -0.1322   0.60    1.0
2067 578982.800   53.027689718   13.313136619    80.1864   2   6   0.2896   0.1178   0.3196   0.0836  -0.0364  -0.1311   0.80    1.1
2067 578983.000   53.027689625   13.313136852    80.1383   2   6   0.2887   0.1175   0.3184   0.0833  -0.0360  -0.1300   1.00    1.1
2067 578983.200   53.027689533   13.313137245    80.0975   2   6   0.2878   0.1172   0.3173   0.0831  -0.0356  -0.1289   1.20    1.1
2067 578983.400   53.027689515   13.313137563    80.0413   2   6   0.2870   0.1169   0.3162   0.0828  -0.0352  -0.1279   1.40    1.2
2067 578983.600   53.027689480   13.313137786    80.0126   2   6   0.2861   0.1167   0.3151   0.0825  -0.0349  -0.1268   1.60    1.2
2067 578983.800   53.027689462   13.313138019    79.9760   2   6   0.2853   0.1164   0.3140   0.0823  -0.0345  -0.1258   1.80    1.2
2067 578984.000   53.027689478   13.313138295    79.9377   2   6   0.2844   0.1161   0.3129   0.0820  -0.0340  -0.1247   0.00    1.2
2067 578984.200   53.027689402   13.313138563    79.9328   2   6   0.2835   0.1158   0.3118   0.0817  -0.0336  -0.1236   0.20    1.2
2067 578984.400   53.027689304   13.313138815    79.9354   2   6   0.2826   0.1156   0.3107   0.0814  -0.0331  -0.1225   0.40    1.2
2067 578984.600   53.027689280   13.313139030    79.9218   2   6   0.2818   0.1153   0.3096   0.0811  -0.0327  -0.1214   0.60    1.2
2067 578984.800   53.027689287   13.313139115    79.9257   2   6   0.2809   0.1150   0.3085   0.0808  -0.0323  -0.1203   0.80    1.2
2067 578985.000   53.027689293   13.313139320    79.9307   2   6   0.2801   0.1147   0.3074   0.0806  -0.0319  -0.1192   1.00    1.2
2067 578985.200   53.027689238   13.313139496    79.9306   2   6   0.2793   0.1145   0.3064   0.0803  -0.0315  -0.1182   1.20    1.2
2067 578985.400   53.027689198   13.313139591    79.9469   2   6   0.2784   0.1142   0.3053   0.0801  -0.0311  -0.1172   1.40    1.2
2067 578985.600   53.027689258   13.313139742    79.9484   2   6   0.2776   0.1140   0.3043   0.0798  -0.0307  -0.1162   1.60    1.2
2067 578985.800   53.027689216   13.313139897    79.9675   2   6   0.2769   0.1137   0.3033   0.0796  -0.0304  -0.1152   1.80    1.2
2067 578986.000   53.027689176   13.313139973    79.9862   2   6   0.2760   0.1134   0.3022   0.0793  -0.0299  -0.1141   0.00    1.2
2067 578986.200   53.027689281   13.313140136    79.9903   2   6   0.2752   0.1132   0.3012   0.0790  -0.0294  -0.1130   0.20    1.2
2067 578986.400   53.027689302   13.313140255    80.0059   2   6   0.2743   0.1129   0.3001   0.0787  -0.0290  -0.1119   0.40    1.2
2067 578986.600   53.027689363   13.313140357    80.0121   2   6   0.2735   0.1127   0.2991   0.0785  -0.0286  -0.1108   0.60    1.2
2067 578986.800   53.027689416   13.313140526    80.0239   2   6   0.2727   0.1124   0.2981   0.0782  -0.0282  -0.1098   0.80    1.2
2067 578987.000   53.027689515   13.313140677    80.0272   2   6   0.2720   0.1122   0.2971   0.0780  -0.0278  -0.1088   1.00    1.2
2067 578987.200   53.027689628   13.313140841    80.0354   2   6   0.2712   0.1119   0.2961   0.0777  -0.0274  -0.1078   1.20    1.2
2067 578987.400   53.027689694   13.313140959    80.0443   2   6   0.2704   0.1117   0.2951   0.0775  -0.0270  -0.1068   1.40    1.2
2067 578987.600   53.027689752   13.313141146    80.0562   2   6   0.2697   0.1114   0.2942   0.0772  -0.0266  -0.1058   1.60    1.2
2067 578987.800   53.027689891   13.313141310    80.0573   2   6   0.2689   0.1112   0.2932   0.0770  -0.0262  -0.1049   1.80    1.2
2067 578988.000   53.027689997   13.313141511    80.0620   2   6   0.2681   0.1109   0.2922   0.0767  -0.0257  -0.1038   0.00    1.2
2067 578988.200   53.027690110   13.313141741    80.0728   2   6   0.2673   0.1107   0.2912   0.0765  -0.0252  -0.1027   0.20    1.2
2067 578988.400   53.027690170   13.313141989    80.0740   2   6   0.2666   0.1104   0.2902   0.0762  -0.0248  -0.1016   0.40    1.2
2067 578988.600   53.027690284   13.313142207    80.0762   2   6   0.2658   0.1102   0.2893   0.0760  -0.0243  -0.1006   0.60    1.2
2067 578988.800   53.027690365   13.313142448    80.0953   2   6   0.2651   0.1100   0.2883   0.0758  -0.0239  -0.0996   0.80    1.1
2067 578989.000   53.027690414   13.313142699    80.1077   2   6   0.2643   0.1097   0.2874   0.0755  -0.0235  -0.0986   1.00    1.1
2067 578989.200   53.027690551   13.313142980    80.1214   2   6   0.2636   0.1095   0.2864   0.0753  -0.0230  -0.0976   1.20    1.0
2067 578989.400   53.027690706   13.313143220    80.1301   2   6   0.2629   0.1093   0.2855   0.0751  -0.0226  -0.0966   1.40    1.0
2067 578989.600   53.027690868   13.313143375    80.1264   2   6   0.2622   0.1091   0.2846   0.0748  -0.0222  -0.0957   1.60    1.1
2067 578989.800   53.027690992   13.313143557    80.1285   2   6   0.2615   0.1088   0.2837   0.0746  -0.0218  -0.0948   1.80    1.1
2067 578990.000   53.027690994   13.313143721    80.1405   2   6   0.2607   0.1086   0.2828   0.0744  -0.0213  -0.0937   0.00    1.1
2067 578990.200   53.027691036   13.313143911    80.1540   2   6   0.2600   0.1084   0.2818   0.0741  -0.0208  -0.0926   0.20    1.1
2067 578990.400   53.027691241   13.313144137    80.1591   2   6   0.2592   0.1081   0.2809   0.0739  -0.0203  -0.0916   0.40    1.2
2067 578990.600   53.027691384   13.313144362    80.1776   2   6   0.2585   0.1079   0.2800   0.0737  -0.0198  -0.0906   0.60    1.2
2067 578990.800   53.027691475   13.313144544    80.2010   2   6   0.2578   0.1077   0.2791   0.0734  -0.0193  -0.0895   0.80    1.2
2067 578991.000   53.027691652   13.313144768    80.2148   2   6   0.2571   0.1075   0.2782   0.0732  -0.0188  -0.0885   1.00    1.2
2067 578991.200   53.027691744   13.313144976    80.2351   2   6   0.2564   0.1073   0.2773   0.0730  -0.0184  -0.0876   1.20    1.2
2067 578991.400   53.027691869   13.313145132    80.2620   2   6   0.2557   0.1070   0.2764   0.0728  -0.0179  -0.0866   1.40    1.2
2067 578991.600   53.027692065   13.313145316    80.2886   2   6   0.2551   0.1068   0.2756   0.0726  -0.0174  -0.0857   1.60    1.2
2067 578991.800   53.027692191   13.313145546    80.3165   2   6   0.2544   0.1066   0.2747   0.0724  -0.0170  -0.0848   1.80    1.2
2067 578992.000   53.027692389   13.313145744    80.3398   2   6   0.2537   0.1064   0.2738   0.0721  -0.0163  -0.0837   0.00    1.2
2067 578992.200   53.027692492   13.313146015    80.3634   2   6   0.2530   0.1062   0.2730   0.0719  -0.0157  -0.0827   0.20    1.2
2067 578992.400   53.027692688   13.313146197    80.3894   2   6   0.2523   0.1060   0.2721   0.0717  -0.0152  -0.0816   0.40    1.2
2067 578992.600   53.027692824   13.313146439    80.4236   2   6   0.2516   0.1057   0.2712   0.0715  -0.0146  -0.0806   0.60    1.2
2067 578992.800   53.027692995   13.313146665    80.4578   2   6   0.2509   0.1055   0.2704   0.0713  -0.0140  -0.0796   0.80    1.3
2067 578993.000   53.027693136   13.313146818    80.4826   2   6   0.2503   0.1053   0.2695   0.0710  -0.0134  -0.0786   1.00    1.3
2067 578993.200   53.027693279   13.313146987    80.4986   2   6   0.2496   0.1051   0.2687   0.0708  -0.0128  -0.0776   1.20    1.3
2067 578993.400   53.027693453   13.313147181    80.5255   2   6   0.2490   0.1049   0.2678   0.0706  -0.0122  -0.0767   1.40    1.3
2067 578993.600   53.027693628   13.313147449    80.5463   2   6   0.2483   0.1047   0.2670   0.0704  -0.0116  -0.0758   1.60    1.3
2067 578993.800   53.027693768   13.313147620    80.5687   2   6   0.2477   0.1045   0.2662   0.0703  -0.0110  -0.0749   1.80    1.3
2067 578994.000   53.027693876   13.313147825    80.5851   2   6   0.2470   0.1043   0.2654   0.0700  -0.0101  -0.0738   0.00    1.2
2067 578994.200   53.027693912   13.313148005    80.6090   2   6   0.2463   0.1041   0.2646   0.0698  -0.0092  -0.0727   0.20    1.3
2067 578994.400   53.027693975   13.313148178    80.6271   2   6   0.2457   0.1039   0.2637   0.0696  -0.0083  -0.0717   0.40    1.2
2067 578994.600   53.027693999   13.313148278    80.6369   2   6   0.2450   0.1037   0.2629   0.0694  -0.0074  -0.0707   0.60    1.2
2067 578994.800   53.027694013   13.313148413    80.6588   2   6   0.2444   0.1035   0.2621   0.0692  -0.0063  -0.0696   0.80    1.3
2067 578995.000   53.027694082   13.313148590    80.6775   2   6   0.2438   0.1033   0.2613   0.0690  -0.0050  -0.0686   1.00    1.3
2067 578995.200   53.027694205   13.313148725    80.6958   2   6   0.2432   0.1031   0.2605   0.0688  -0.0034  -0.0677   1.20    1.3
2067 578995.400   53.027694348   13.313148865    80.7130   2   6   0.2425   0.1029   0.2597   0.0686   0.0012  -0.0667   1.40    1.3
2067 578995.600   53.027694396   13.313148998    80.7379   2   6   0.2419   0.1027   0.2589   0.0684   0.0038  -0.0658   1.60    1.3
2067 578995.800   53.027694461   13.313149122    80.7571   2   6   0.2414   0.1026   0.2582   0.0682   0.0051  -0.0648   1.80    1.3
2067 578996.000   53.027694552   13.313149256    80.7716   2   6   0.2408   0.1024   0.2575   0.0681   0.0061  -0.0640   2.00    1.3
2067 578996.200   53.027694710   13.313149346    80.7866   2   6   0.2402   0.1022   0.2567   0.0679   0.0070  -0.0631   2.20    1.3
2067 578996.400   53.027694768   13.313149507    80.8044   2   6   0.2397   0.1020   0.2560   0.0677   0.0077  -0.0623   2.40    1.3
2067 578996.600   53.027694909   13.313149623    80.8202   2   6   0.2391   0.1018   0.2553   0.0676   0.0083  -0.0615   2.60    1.3
2067 578996.800   53.027695089   13.313149814    80.8322   2   6   0.2386   0.1016   0.2546   0.0674   0.0088  -0.0607   2.80    1.3
2067 578997.000   53.027695211   13.313149949    80.8388   2   6   0.2379   0.1014   0.2538   0.0672   0.0098  -0.0596   0.00    1.3
2067 578997.200   53.027695403   13.313150089    80.8513   2   6   0.2372   0.1012   0.2531   0.0670   0.0106  -0.0585   0.20    1.2
2067 578997.400   53.027695479   13.313150198    80.8574   2   6   0.2366   0.1010   0.2523   0.0668   0.0112  -0.0574   0.40    1.2
2067 578997.600   53.027695615   13.313150327    80.8688   2   6   0.2360   0.1009   0.2515   0.0666   0.0118  -0.0563   0.60    1.2
2067 578997.800   53.027695840   13.313150492    80.8710   2   6   0.2354   0.1007   0.2508   0.0664   0.0123  -0.0552   0.80    1.2
2067 578998.000   53.027695993   13.313150661    80.8752   2   6   0.2348   0.1005   0.2500   0.0662   0.0128  -0.0541   1.00    1.2
2067 578998.200   53.027696188   13.313150815    80.8853   2   6   0.2343   0.1003   0.2493   0.0660   0.0132  -0.0531   1.20    1.2
2067 578998.400   53.027696365   13.313150987    80.8927   2   6   0.2337   0.1001   0.2486   0.0658   0.0136  -0.0521   1.40    1.2
2067 578998.600   53.027696524   13.313151148    80.9079   2   6   0.2331   0.1000   0.2479   0.0657   0.0140  -0.0511   1.60    1.2
2067 578998.800   53.027696662   13.313151228    80.9252   2   6   0.2326   0.0998   0.2472   0.0655   0.0144  -0.0501   1.80    1.2
2067 578999.000   53.027696688   13.313151234    80.9435   2   6   0.2320   0.0996   0.2464   0.0653   0.0149  -0.0489   0.00    1.2
2067 578999.200   53.027696890   13.313151248    80.9662   2   6   0.2314   0.0994   0.2457   0.0651   0.0153  -0.0476   0.20    1.2
2067 578999.400   53.027697084   13.313151334    80.9785   2   6   0.2308   0.0993   0.2449   0.0649   0.0157  -0.0464   0.40    1.3
2067 578999.600   53.027697277   13.313151385    81.0074   2   6   0.2302   0.0991   0.2442   0.0647   0.0161  -0.0452   0.60    1.3
2067 578999.800   53.027697453   13.313151396    81.0323   2   6   0.2296   0.0989   0.2435   0.0646   0.0164  -0.0440   0.80    1.3
2067 579000.000   53.027697676   13.313151402    81.0604   2   6   0.2291   0.0987   0.2428   0.0644   0.0167  -0.0429   1.00    1.3
2067 579000.200   53.027697927   13.313151453    81.0849   2   6   0.2285   0.0986   0.2421   0.0642   0.0170  -0.0417   1.20    1.3
2067 579000.400   53.027698155   13.313151443    81.1137   2   6   0.2280   0.0984   0.2414   0.0641   0.0173  -0.0405   1.40    1.3
2067 579000.600   53.027698355   13.313151446    81.1538   2   6   0.2274   0.0982   0.2407   0.0639   0.0176  -0.0394   1.60    1.3
2067 579000.800   53.027698619   13.313151486    81.1815   2   6   0.2269   0.0981   0.2400   0.0637   0.0178  -0.0382   1.80    1.3
2067 579001.000   53.027698800   13.313151466    81.2121   2   6   0.2263   0.0979   0.2393   0.0635   0.0182  -0.0368   0.00    1.3
2067 579001.200   53.027699030   13.313151463    81.2421   2   6   0.2257   0.0977   0.2386   0.0634   0.0185  -0.0354   0.20    1.3
2067 579001.400   53.027699259   13.313151453    81.2809   2   6   0.2252   0.0976   0.2379   0.0632   0.0188  -0.0340   0.40    1.3
2067 579001.600   53.027699465   13.313151420    81.3177   2   6   0.2246   0.0974   0.2372   0.0630   0.0191  -0.0325   0.60    1.3
2067 579001.800   53.027699645   13.313151365    81.3535   2   5   0.2241   0.0973   0.2365   0.0629   0.0193  -0.0311   0.80    1.1
2067 579002.000   53.027699851   13.313151314    81.3884   2   6   0.2236   0.0971   0.2359   0.0628   0.0195  -0.0296   1.00    1.1
2067 579002.200   53.027700056   13.313151323    81.4174   2   5   0.2231   0.0970   0.2352   0.0627   0.0198  -0.0281   1.20    1.1
2067 579002.400   53.027700144   13.313151340    81.4494   2   6   0.2226   0.0968   0.2345   0.0625   0.0200  -0.0266   1.40    1.1
2067 579002.600   53.027700356   13.313151252    81.4772   2   6   0.2221   0.0966   0.2339   0.0624   0.0202  -0.0249   1.60    1.1
2067 579002.800   53.027700530   13.313151277    81.5015   2   6   0.2217   0.0965   0.2333   0.0622   0.0205  -0.0231   1.80    1.1
2067 579003.000   53.027700726   13.313151274    81.5216   2   6   0.2211   0.0963   0.2326   0.0621   0.0208  -0.0207   0.00    1.1
2067 579003.200   53.027700962   13.313151256    81.5429   2   6   0.2206   0.0961   0.2319   0.0619   0.0211  -0.0181   0.20    1.1
2067 579003.400   53.027701149   13.313151229    81.5732   2   6   0.2201   0.0960   0.2313   0.0617   0.0214  -0.0150   0.40    1.1
2067 579003.600   53.027701313   13.313151185    81.5962   2   6   0.2197   0.0958   0.2306   0.0616   0.0217  -0.0111   0.60    1.0
2067 579003.800   53.027701469   13.313151162    81.6222   2   6   0.2192   0.0956   0.2300   0.0614   0.0219  -0.0050   0.80    1.0
2067 579004.000   53.027701638   13.313151153    81.6492   2   6   0.2187   0.0955   0.2294   0.0613   0.0222   0.0084   1.00    1.0
2067 579004.200   53.027701808   13.313151094    81.6761   2   6   0.2182   0.0953   0.2288   0.0611   0.0224   0.0128   1.20    1.0
2067 579004.400   53.027702064   13.313151117    81.6997   2   6   0.2178   0.0952   0.2282   0.0610   0.0226   0.0160   1.40    1.0
2067 579004.600   53.027702206   13.313151086    81.7254   2   6   0.2173   0.0950   0.2276   0.0608   0.0228   0.0185   1.60    1.0
2067 579004.800   53.027702402   13.313151069    81.7451   2   6   0.2169   0.0949   0.2271   0.0607   0.0229   0.0206   1.80    1.0
2067 579005.000   53.027702573   13.313151043    81.7691   2   6   0.2164   0.0947   0.2264   0.0605   0.0232   0.0229   0.00    1.0
2067 579005.200   53.027702726   13.313151047    81.7858   2   6   0.2159   0.0946   0.2258   0.0604   0.0234   0.0250   0.20    1.0
2067 579005.400   53.027702892   13.313151055    81.7983   2   6   0.2154   0.0944   0.2252   0.0602   0.0236   0.0268   0.40    1.0
2067 579005.600   53.027703066   13.313151015    81.8202   2   6   0.2149   0.0943   0.2247   0.0601   0.0238   0.0285   0.60    1.0
2067 579005.800   53.027703231   13.313151016    81.8448   2   6   0.2145   0.0941   0.2241   0.0599   0.0240   0.0300   0.80    1.0
2067 579006.000   53.027703467   13.313151014    81.8596   2   6   0.2140   0.0940   0.2235   0.0598   0.0242   0.0314   1.00    1.0
2067 579006.200   53.027703601   13.313151008    81.8792   2   6   0.2136   0.0938   0.2229   0.0597   0.0243   0.0327   1.20    1.0
2067 579006.400   53.027703751   13.313150970    81.9002   2   6   0.2132   0.0937   0.2224   0.0595   0.0245   0.0339   1.40    1.1
2067 579006.600   53.027703935   13.313150945    81.9242   2   6   0.2127   0.0935   0.2218   0.0594   0.0246   0.0350   1.60    1.1
2067 579006.800   53.027704101   13.313150907    81.9483   2   6   0.2123   0.0934   0.2213   0.0593   0.0248   0.0360   1.80    1.1
2067 579007.000   53.027704087   13.313150901    81.9832   2   6   0.2118   0.0932   0.2207   0.0591   0.0250   0.0372   0.00    1.1
2067 579007.200   53.027704106   13.313150960    82.0052   2   6   0.2114   0.0931   0.2201   0.0589   0.0251   0.0383   0.20    1.1
2067 579007.400   53.027704140   13.313151024    82.0240   2   6   0.2109   0.0930   0.2195   0.0588   0.0253   0.0394   0.40    1.0
2067 579007.600   53.027704218   13.313151040    82.0482   2   6   0.2105   0.0928   0.2190   0.0587   0.0255   0.0404   0.60    1.0
2067 579007.800   53.027704389   13.313151033    82.0738   2   6   0.2100   0.0927   0.2184   0.0585   0.0256   0.0414   0.80    1.0
2067 579008.000   53.027704574   13.313151007    82.0987   2   6   0.2096   0.0925   0.2178   0.0584   0.0257   0.0423   1.00    1.1
2067 579008.200   53.027704735   13.313151055    82.1164   2   6   0.2092   0.0924   0.2173   0.0583   0.0259   0.0431   1.20    1.1
2067 579008.400   53.027704877   13.313151037    82.1386   2   6   0.2088   0.0923   0.2168   0.0581   0.0260   0.0439   1.40    1.1
2067 579008.600   53.027705025   13.313151022    82.1661   2   6   0.2084   0.0921   0.2162   0.0580   0.0261   0.0447   1.60    1.1
2067 579008.800   53.027705152   13.313151093    82.1816   2   6   0.2080   0.0920   0.2157   0.0579   0.0262   0.0454   1.80    1.1
2067 579009.000   53.027705272   13.313151124    82.2029   2   6   0.2075   0.0918   0.2152   0.0577   0.0264   0.0463   0.00    1.1
2067 579009.200   53.027705393   13.313151148    82.2195   2   6   0.2071   0.0917   0.2146   0.0576   0.0266   0.0471   0.20    1.1
2067 579009.400   53.027705480   13.313151225    82.2335   2   6   0.2066   0.0916   0.2141   0.0574   0.0267   0.0479   0.40    1.1
2067 579009.600   53.027705538   13.313151245    82.2465   2   6   0.2062   0.0914   0.2135   0.0573   0.0268   0.0486   0.60    1.1
2067 579009.800   53.027705710   13.313151277    82.2620   2   6   0.2058   0.0913   0.2130   0.0572   0.0269   0.0493   0.80    1.1
2067 579010.000   53.027705865   13.313151293    82.2794   2   6   0.2054   0.0911   0.2125   0.0570   0.0271   0.0500   1.00    1.0
2067 579010.200   53.027706026   13.313151302    82.2897   2   6   0.2050   0.0910   0.2120   0.0569   0.0272   0.0507   1.20    1.0
2067 579010.400   53.027706151   13.313151301    82.3074   2   6   0.2046   0.0909   0.2114   0.0568   0.0273   0.0513   1.40    1.0
2067 579010.600   53.027706321   13.313151374    82.3169   2   6   0.2042   0.0908   0.2109   0.0567   0.0274   0.0519   1.60    1.0
2067 579010.800   53.027706458   13.313151398    82.3348   2   6   0.2039   0.0906   0.2105   0.0566   0.0275   0.0524   1.80    1.0
2067 579011.000   53.027706590   13.313151430    82.3534   2   6   0.2034   0.0905   0.2099   0.0564   0.0276   0.0531   0.00    1.0
2067 579011.200   53.027706697   13.313151439    82.3690   2   6   0.2030   0.0903   0.2094   0.0563   0.0277   0.0537   0.20    1.0
2067 579011.400   53.027706785   13.313151447    82.3847   2   6   0.2026   0.0902   0.2089   0.0561   0.0279   0.0544   0.40    1.0
2067 579011.600   53.027706931   13.313151431    82.3998   2   6   0.2022   0.0901   0.2084   0.0560   0.0280   0.0549   0.60    1.0
2067 579011.800   53.027706985   13.313151469    82.4182   2   6   0.2018   0.0900   0.2079   0.0559   0.0281   0.0555   0.80    1.0
2067 579012.000   53.027707196   13.313151472    82.4332   2   6   0.2014   0.0898   0.2074   0.0558   0.0282   0.0560   1.00    1.0
2067 579012.200   53.027707375   13.313151512    82.4485   2   5   0.2010   0.0897   0.2069   0.0557   0.0281   0.0566   1.20    1.0
2067 579012.400   53.027707459   13.313151500    82.4686   2   6   0.2006   0.0896   0.2064   0.0556   0.0281   0.0570   1.40    1.0
2067 579012.600   53.027707602   13.313151489    82.4818   2   6   0.2003   0.0895   0.2060   0.0555   0.0282   0.0574   1.60    1.0
2067 579012.800   53.027707698   13.313151505    82.4999   2   6   0.1999   0.0894   0.2055   0.0554   0.0283   0.0579   1.80    1.0
2067 579013.000   53.027707789   13.313151481    82.5107   2   6   0.1995   0.0892   0.2050   0.0552   0.0285   0.0584   0.00    1.0
2067 579013.200   53.027707995   13.313151582    82.5123   2   6   0.1991   0.0891   0.2045   0.0551   0.0286   0.0589   0.20    1.0
2067 579013.400   53.027708137   13.313151677    82.5102   2   6   0.1987   0.0890   0.2040   0.0550   0.0288   0.0594   0.40    1.0
2067 579013.600   53.027708223   13.313151733    82.5137   2   6   0.1983   0.0888   0.2035   0.0549   0.0289   0.0599   0.60    1.1
2067 579013.800   53.027708289   13.313151804    82.5227   2   6   0.1980   0.0887   0.2030   0.0548   0.0290   0.0604   0.80    1.1
2067 579014.000   53.027708390   13.313151860    82.5267   2   6   0.1976   0.0886   0.2025   0.0546   0.0291   0.0608   1.00    1.1
2067 579014.200   53.027708539   13.313151868    82.5305   2   6   0.1972   0.0885   0.2021   0.0545   0.0292   0.0613   1.20    1.1
2067 579014.400   53.027708722   13.313151920    82.5313   2   6   0.1969   0.0883   0.2016   0.0544   0.0293   0.0617   1.40    1.1
2067 579014.600   53.027708800   13.313151980    82.5403   2   6   0.1965   0.0882   0.2011   0.0543   0.0294   0.0621   1.60    1.1
2067 579014.800   53.027708961   13.313152051    82.5412   2   6   0.1962   0.0881   0.2007   0.0542   0.0294   0.0625   1.80    1.2
2067 579015.000   53.027709061   13.313152148    82.5401   2   6   0.1958   0.0880   0.2002   0.0541   0.0296   0.0629   0.00    1.2
2067 579015.200   53.027709161   13.313152203    82.5438   2   6   0.1954   0.0878   0.1997   0.0539   0.0297   0.0634   0.20    1.2
2067 579015.400   53.027709260   13.313152231    82.5474   2   6   0.1950   0.0877   0.1993   0.0538   0.0298   0.0638   0.40    1.2
2067 579015.600   53.027709381   13.313152249    82.5476   2   6   0.1947   0.0876   0.1988   0.0537   0.0299   0.0643   0.60    1.2
2067 579015.800   53.027709513   13.313152266    82.5488   2   6   0.1943   0.0875   0.1984   0.0536   0.0299   0.0647   0.80    1.2
2067 579016.000   53.027709636   13.313152325    82.5536   2   6   0.1940   0.0874   0.1979   0.0535   0.0300   0.0651   1.00    1.2
2067 579016.200   53.027709675   13.313152399    82.5558   2   6   0.1936   0.0872   0.1975   0.0534   0.0301   0.0654   1.20    1.2
2067 579016.400   53.027709844   13.313152452    82.5598   2   6   0.1933   0.0871   0.1970   0.0533   0.0301   0.0658   1.40    1.2
2067 579016.600   53.027710005   13.313152514    82.5623   2   6   0.1930   0.0870   0.1966   0.0532   0.0302   0.0661   1.60    1.2
2067 579016.800   53.027710131   13.313152592    82.5626   2   6   0.1926   0.0869   0.1962   0.0531   0.0303   0.0664   1.80    1.2
2067 579017.000   53.027710407   13.313152685    82.5545   2   6   0.1922   0.0868   0.1957   0.0530   0.0304   0.0668   0.00    1.2
2067 579017.200   53.027710556   13.313152815    82.5585   2   6   0.1919   0.0867   0.1953   0.0528   0.0305   0.0672   0.20    1.2
2067 579017.400   53.027710789   13.313152801    82.5592   2   6   0.1915   0.0865   0.1948   0.0527   0.0305   0.0676   0.40    1.2
2067 579017.600   53.027710941   13.313152834    82.5637   2   6   0.1912   0.0864   0.1944   0.0526   0.0306   0.0679   0.60    1.2
2067 579017.800   53.027711086   13.313152863    82.5720   2   6   0.1908   0.0863   0.1940   0.0525   0.0307   0.0682   0.80    1.2
2067 579018.000   53.027711181   13.313152888    82.5823   2   6   0.1905   0.0862   0.1935   0.0524   0.0307   0.0686   1.00    1.2
2067 579018.200   53.027711341   13.313152895    82.5850   2   6   0.1902   0.0861   0.1931   0.0523   0.0308   0.0689   1.20    1.2
2067 579018.400   53.027711428   13.313152968    82.5931   2   6   0.1899   0.0860   0.1927   0.0522   0.0308   0.0692   1.40    1.2
2067 579018.600   53.027711609   13.313153056    82.5964   2   6   0.1895   0.0859   0.1923   0.0521   0.0309   0.0694   1.60    1.2
2067 579018.800   53.027711722   13.313153117    82.6011   2   6   0.1892   0.0858   0.1919   0.0520   0.0309   0.0697   1.80    1.2
2067 579019.000   53.027711710   13.313153198    82.6075   2   6   0.1889   0.0856   0.1915   0.0519   0.0310   0.0700   0.00    1.2
2067 579019.200   53.027711746   13.313153243    82.6125   2   6   0.1885   0.0855   0.1910   0.0518   0.0311   0.0704   0.20    1.2
2067 579019.400   53.027711788   13.313153280    82.6127   2   6   0.1882   0.0854   0.1906   0.0517   0.0312   0.0707   0.40    1.2
2067 579019.600   53.027711883   13.313153373    82.6173   2   6   0.1878   0.0853   0.1902   0.0516   0.0312   0.0710   0.60    1.2
2067 579019.800   53.027711933   13.313153496    82.6121   2   6   0.1875   0.0852   0.1898   0.0515   0.0313   0.0713   0.80    1.2
2067 579020.000   53.027711977   13.313153662    82.6066   2   6   0.1872   0.0851   0.1894   0.0514   0.0313   0.0715   1.00    1.2
2067 579020.200   53.027712031   13.313153752    82.6030   2   6   0.1869   0.0850   0.1890   0.0513   0.0314   0.0718   1.20    1.2
2067 579020.400   53.027712054   13.313153839    82.6047   2   6   0.1866   0.0849   0.1886   0.0512   0.0314   0.0720   1.40    1.2
2067 579020.600   53.027712118   13.313153941    82.6000   2   6   0.1863   0.0848   0.1882   0.0511   0.0315   0.0723   1.60    1.2
2067 579020.800   53.027712158   13.313154039    82.5925   2   6   0.1860   0.0847   0.1878   0.0510   0.0315   0.0725   1.80    1.3
2067 579021.000   53.027712179   13.313154108    82.5982   2   6   0.1856   0.0845   0.1874   0.0509   0.0316   0.0728   0.00    1.3
2067 579021.200   53.027712214   13.313154223    82.5977   2   6   0.1853   0.0844   0.1870   0.0508   0.0317   0.0731   0.20    1.3
2067 579021.400   53.027712210   13.313154375    82.5902   2   6   0.1849   0.0843   0.1866   0.0507   0.0317   0.0733   0.40    1.3
2067 579021.600   53.027712237   13.313154481    82.5819   2   6   0.1846   0.0842   0.1862   0.0506   0.0318   0.0736   0.60    1.3
2067 579021.800   53.027712264   13.313154602    82.5768   2   6   0.1843   0.0841   0.1858   0.0505   0.0318   0.0738   0.80    1.3
2067 579022.000   53.027712172   13.313154691    82.5755   2   6   0.1840   0.0840   0.1854   0.0504   0.0319   0.0741   1.00    1.3
2067 579022.200   53.027712171   13.313154786    82.5766   2   6   0.1837   0.0839   0.1850   0.0503   0.0319   0.0743   1.20    1.3
2067 579022.400   53.027712246   13.313154880    82.5725   2   6   0.1834   0.0838   0.1846   0.0502   0.0320   0.0745   1.40    1.4
2067 579022.600   53.027712281   13.313155004    82.5743   2   6   0.1831   0.0837   0.1842   0.0501   0.0320   0.0747   1.60    1.4
2067 579022.800   53.027712315   13.313155101    82.5776   2   6   0.1828   0.0836   0.1839   0.0500   0.0320   0.0749   1.80    1.4
2067 579023.000   53.027712369   13.313155165    82.5813   2   6   0.1826   0.0835   0.1835   0.0499   0.0321   0.0750   2.00    1.4
2067 579023.200   53.027712376   13.313155272    82.5811   2   6   0.1823   0.0834   0.1832   0.0499   0.0321   0.0752   2.20    1.4
2067 579023.400   53.027712372   13.313155357    82.5859   2   6   0.1820   0.0833   0.1828   0.0498   0.0321   0.0753   2.40    1.4
2067 579023.600   53.027712385   13.313155426    82.5900   2   6   0.1818   0.0832   0.1825   0.0497   0.0321   0.0755   2.60    1.4
2067 579023.800   53.027712409   13.313155519    82.5925   2   6   0.1815   0.0831   0.1821   0.0496   0.0321   0.0756   2.80    1.4
2067 579024.000   53.027712348   13.313155597    82.6058   2   6   0.1811   0.0830   0.1817   0.0495   0.0322   0.0759   0.00    1.4
2067 579024.200   53.027712316   13.313155667    82.6129   2   6   0.1808   0.0829   0.1814   0.0494   0.0323   0.0761   0.20    1.4
2067 579024.400   53.027712379   13.313155720    82.6195   2   6   0.1804   0.0828   0.1810   0.0493   0.0324   0.0763   0.40    1.4
2067 579024.600   53.027712371   13.313155793    82.6284   2   6   0.1801   0.0827   0.1806   0.0492   0.0324   0.0765   0.60    1.4
2067 579024.800   53.027712408   13.313155851    82.6287   2   6   0.1798   0.0826   0.1802   0.0491   0.0324   0.0767   0.80    1.4
2067 579025.000   53.027712394   13.313155972    82.6318   2   6   0.1796   0.0825   0.1799   0.0490   0.0325   0.0769   1.00    1.5
2067 579025.200   53.027712384   13.313156067    82.6315   2   6   0.1793   0.0824   0.1795   0.0489   0.0325   0.0770   1.20    1.5
2067 579025.400   53.027712442   13.313156147    82.6354   2   6   0.1790   0.0823   0.1791   0.0488   0.0325   0.0772   1.40    1.5
2067 579025.600   53.027712416   13.313156202    82.6408   2   6   0.1787   0.0822   0.1788   0.0488   0.0325   0.0774   1.60    1.5
2067 579025.800   53.027712421   13.313156256    82.6391   2   6   0.1785   0.0821   0.1784   0.0487   0.0326   0.0775   1.80    1.5
2067 579026.000   53.027712407   13.313156339    82.6468   2   6   0.1781   0.0820   0.1781   0.0486   0.0326   0.0777   0.00    1.5
2067 579026.200   53.027712419   13.313156420    82.6558   2   6   0.1778   0.0819   0.1777   0.0485   0.0327   0.0779   0.20    1.5
2067 579026.400   53.027712381   13.313156443    82.6681   2   6   0.1775   0.0818   0.1773   0.0484   0.0327   0.0781   0.40    1.5
2067 579026.600   53.027712371   13.313156525    82.6764   2   6   0.1772   0.0817   0.1770   0.0483   0.0328   0.0783   0.60    1.5
2067 579026.800   53.027712345   13.313156543    82.6843   2   6   0.1769   0.0816   0.1766   0.0482   0.0328   0.0784   0.80    1.5
2067 579027.000   53.027712314   13.313156604    82.6961   2   6   0.1766   0.0815   0.1763   0.0481   0.0328   0.0786   1.00    1.5
2067 579027.200   53.027712337   13.313156664    82.7082   2   6   0.1764   0.0814   0.1759   0.0480   0.0329   0.0788   1.20    1.5
2067 579027.400   53.027712351   13.313156672    82.7178   2   6   0.1761   0.0813   0.1756   0.0479   0.0329   0.0789   1.40    1.5
2067 579027.600   53.027712295   13.313156722    82.7336   2   6   0.1758   0.0812   0.1752   0.0479   0.0329   0.0790   1.60    1.5
2067 579027.800   53.027712259   13.313156793    82.7441   2   6   0.1756   0.0811   0.1749   0.0478   0.0329   0.0791   1.80    1.5
2067 579028.000   53.027712252   13.313156773    82.7539   2   6   0.1752   0.0810   0.1745   0.0477   0.0330   0.0793   0.00    1.5
2067 579028.200   53.027712236   13.313156798    82.7558   2   6   0.1749   0.0809   0.1742   0.0476   0.0330   0.0795   0.20    1.5
2067 579028.400   53.027712215   13.313156746    82.7626   2   6   0.1746   0.0808   0.1738   0.0475   0.0331   0.0796   0.40    1.5
2067 579028.600   53.027712170   13.313156727    82.7664   2   6   0.1744   0.0807   0.1735   0.0474   0.0331   0.0798   0.60    1.5
2067 579028.800   53.027712090   13.313156691    82.7716   2   6   0.1741   0.0806   0.1731   0.0473   0.0331   0.0799   0.80    1.5
2067 579029.000   53.027712046   13.313156679    82.7810   2   6   0.1738   0.0805   0.1728   0.0473   0.0331   0.0801   1.00    1.5
2067 579029.200   53.027712020   13.313156622    82.7836   2   6   0.1735   0.0805   0.1725   0.0472   0.0332   0.0802   1.20    1.5
2067 579029.400   53.027711964   13.313156597    82.7865   2   6   0.1733   0.0804   0.1721   0.0471   0.0332   0.0803   1.40    1.5
2067 579029.600   53.027711926   13.313156580    82.7827   2   6   0.1730   0.0803   0.1718   0.0470   0.0332   0.0804   1.60    1.5
2067 579029.800   53.027711916   13.313156572    82.7773   2   6   0.1728   0.0802   0.1715   0.0469   0.0332   0.0805   1.80    1.5
2067 579030.000   53.027711853   13.313156592    82.7685   2   6   0.1724   0.0801   0.1711   0.0468   0.0333   0.0807   0.00    1.5
2067 579030.200   53.027711790   13.313156550    82.7571   2   6   0.1722   0.0800   0.1708   0.0467   0.0333   0.0808   0.20    1.5
2067 579030.400   53.027711726   13.313156549    82.7407   2   6   0.1719   0.0799   0.1704   0.0467   0.0333   0.0809   0.40    1.5
